County,Market Name,Location,Address Line 1,City,State,Zip,Contact,Phone,Market Link,Operation Hours,Operation Season,FMNP,Operating Months,Latitude,Longitude,FCC Issued,EBT/SNAP,FCC Accepted,Location Points
Albany,Altamont Farmers' Market,"Altamont Free Library, 181 Main St.",181 Main Street,Altamont,NY,12009,Kelly Best,5188618554,http://nfmd.org/ny/altamont/1004383/,"Mon, Tue, Thu, Fri  11am-6pm, Sat/Sun  10am-2pm",July 1-October 1,Y,M,42.70149,-74.03254,N,N,Y,"(42.70149, -74.03254)"
Albany,Altamont Orchards Farm Stand,"6654 Dunnsville Road, Altamont",6654 Dunnsville Road,Altamont,NY,12009,Jim Abbruzzese,5188616515,http://www.altamontorchards.com,Daily  9:30am-5pm,August 27-December 24,Y,M/X,42.720708,-74.01624,N,N,Y,"(42.720708, -74.01624)"
Albany,CDPHP Farmers' Market,"CDPHP prkg lot off Washington Ave., 500 Patroon Creek Blvd. Albany",500 Patroon Creek Bvld.,Albany,NY,12206,Randy Tryon,5186415611,http://www.cdphp.com,Thursday  11am-1:30pm,May 26-October 13,Y,P/M,42.68418,-73.80587,N,N,Y,"(42.68418, -73.80587)"
Albany,Colonie Crossings Farmers' Market,580 Albany Shaker Rd. Loudonville,580 Albany Shaker Rd,Colonie,NY,12211,Laura Archambault,5184562136,http://www.colonie.org,Saturday  9am-1pm,May 21-October 1,Y,P/M,42.71016,-73.78029,N,N,Y,"(42.71016, -73.78029)"
Albany,Cook Park Farmers' Market,Sharon Drive Pavilion Cook Park Colonie,3 Sharon drive,Colonie,NY,12205,Krysta Dennis,5186692636,http://www.cookparkfarmersmarket.com,Thursday  4pm-7pm,May 12-October 13,Y,P/M,42.70742,-73.83453,N,N,Y,"(42.70742, -73.83453)"
Albany,Delaware Community Farmers' Market,"Delaware Branch Library, 331 Delaware Ave. Albany",331 Delaware Ave,Albany,NY,12209,Louise McNeilly,5184320516,,"Jun-Sept: Tues 4p-7p, Oct-Nov: Tues 3p-6p",June 21-November 15,Y,M,42.64305,-73.77824,Y,Y,Y,"(42.64305, -73.77824)"
Albany,Delmar Saturday Farmers' Market,"Bethlehem Central Middle School, 332 Kenwood Avenue",332 Kenwood Avenue,Delmar,NY,12054,Ken Myer,5184871991,http://www.delmarmarket.org,Saturday  9am-1pm,May 7-December 17,Y,P/M/X,42.6212,-73.82577,N,Y,Y,"(42.6212, -73.82577)"
Albany,Delmar Tuesday Farmers' Market,"First United Methodist Church Lot, 428 Kenwood Ave.",428 Kenwood Ave,Delmar,NY,12054,Frank Stanton,5187568228,http://www.cdfm518.com,Tuesday  2:30pm-6pm,May 3-November 22,Y,P/M,42.62298,-73.83623,N,Y,Y,"(42.62298, -73.83623)"
Albany,Downtown Albany Farmers' Market,SUNY Plaza 353 Broadway & State St (Indoor Market - Inside SUNY Bldg),353 Broadway,Albany,NY,12207,Ron Bulich,5182912449,http://www.cdfma518.com,Thursday  11am-2pm,Year-round,Y,YR,42.64847,-73.75012,Y,Y,Y,"(42.64847, -73.75012)"
Albany,Empire State Plaza Friday Farmers' Market,Empire State Plaza near the Capitol,170 State St,Albany,NY,12210,Jason Rumpf,5184732982,http://www.ogs.ny.gov,Friday  10am-2pm,May 4-October 14,Y,P/M,42.65162,-73.75692,Y,Y,Y,"(42.65162, -73.75692)"
Albany,Empire State Plaza Wed Farmers' Market,"Empire State Plaza, In Front of Capitol, (Winter inside South Concourse)",170 State St,Albany,NY,12210,Jason Rumpf,5184732982,http://www.ogs.ny.gov,Wednesday  10am-2pm,Year-round,Y,YR,42.65068,-73.758,Y,Y,Y,"(42.65068, -73.758)"
Albany,Farm to Preschool III Farmers' Market,Cohoes Community Center  22-40 Remsen St.,22-40 Remsen Street,Cohoes,NY,12047,Darlene Yule,5184267181,http://www.cdcccc.org,Mon  2:30pm-5:30pm,June 13-September 26,Y,M,42.7756,-73.70149,Y,Y,Y,"(42.7756, -73.70149)"
Albany,Harriman State Campus Farmers' Market,"Harriman State Office Campus, behind Bldg. 8A Albany",1366 Washington Ave.,Albany,NY,12203,Jason Rumpf,5184732982,http://www.ogs.ny.gov,Thursday  10am-2pm,May 5-October 13,Y,P/M,42.678038,-73.809942,N,N,Y,"(42.678038, -73.809942)"
Albany,New Covenant Farmers' Market,"New Covenant Presbyterian Church, 916 Western Ave.",916 Western Ave,Albany,NY,12203,Katy Stenta,5184828063,https://www.facebook.com/NewCovenantFarmersMarket/,Tuesday  3pm-6pm,May 24-October 4,Y,P/M,42.67228,-73.81026,N,N,Y,"(42.67228, -73.81026)"
Albany,South End Farmers' Market,Lincoln Park Eagle St & Morton Ave  Albany,Eagle St and Morton Ave,Albany,NY,12202,Ray Turner,5185066524,,Saturday  12pm-4pm,July 9-October 8,Y,M,42.64326,-73.76304,N,Y,Y,"(42.64326, -73.76304)"
Albany,Veggie Mobile-Arbor Hill/West Hill,Henry Johnson Blvd & 2nd St. Albany,Henry Johnson Boulevard and 2nd Street,Albany,NY,12210,Audrey Bridge,5182748685,http://www.capitalroots.org,Thu 12:15pm-1pm,Year-round,Y,YR,42.66226,-73.76013,Y,Y,Y,"(42.66226, -73.76013)"
Albany,Veggie Mobile-Center for Disability,646 South Pearl Street Albany,646 South Pearl Street,Albany,NY,12202,Audrey Bridge,5182748685,http://www.capitalroots.org,Tue 12:15pm-1pm,Year-round,Y,YR,42.63003,-73.76585,Y,Y,Y,"(42.63003, -73.76585)"
Albany,Veggie Mobile-Cohoes Senior Ctr,100 Cayuga Plaza Cohoes,100 Cayuga Plaza,Cohoes,NY,12047,Audrey Bridge,5182748685,http://www.capitalroots.org,Wednesday 3pm-4pm,Year-round,Y,YR,42.77712,-73.70101,Y,Y,Y,"(42.77712, -73.70101)"
Albany,Veggie Mobile-Creighton Storey,158 3rd Street Albany,158 3rd Street,Albany,NY,12210,Audrey Bridge,5182748685,http://www.capitalroots.org,Thu 5pm-5:45pm,Year-round,Y,YR,42.66205,-73.7578,Y,Y,Y,"(42.66205, -73.7578)"
Albany,Veggie Mobile-Howe Library,Schuyler & Broad St. Albany,Schuyler St and Broad Street,Albany,NY,12202,Audrey Bridge,5182748685,http://www.capitalroots.org,Tue 3pm-3:45pm,Year-round,Y,YR,42.64112,-73.75802,Y,Y,Y,"(42.64112, -73.75802)"
Albany,Veggie Mobile-Koinonia Primary Care,533 Clinton Ave. (at N. Lake) Albany,533 Clinton Avenue,Albany,NY,12206,Audrey Bridge,5182748685,http://www.capitalroots.org,Tue 2pm-2:45pm,Year-round,Y,YR,42.66508,-73.76804,Y,Y,Y,"(42.66508, -73.76804)"
Albany,Veggie Mobile-Lincoln Square,3 Lincoln Square Albany,3 Lincoln Square,Albany,NY,12202,Audrey Bridge,5182748685,http://www.capitalroots.org,Mon 5pm-5:45pm,Year-round,Y,YR,42.6428,-73.76118,Y,Y,Y,"(42.6428, -73.76118)"
Albany,Veggie Mobile-N. Albany YMCA,616 N. Pearl St. Albany,616 North Pearl Street,Albany,NY,12204,Audrey Bridge,5182748685,http://www.capitalroots.org,Wed 4:45pm-5:45pm,Year-round,Y,YR,42.67368,-73.73953,Y,Y,Y,"(42.67368, -73.73953)"
Albany,Veggie Mobile-Robert Whalen,305 Colonie Street Albany,305 Colonie Street,Albany,NY,12210,Audrey Bridge,5182748685,http://www.capitalroots.org,Wed 11:15am-12pm,Year-round,Y,YR,42.66338,-73.75595,Y,Y,Y,"(42.66338, -73.75595)"
Albany,Veggie Mobile-South Mall Towers,101 S. Pearl St. Albany,101 South Pearl Street,Albany,NY,12207,Audrey Bridge,5182748685,http://www.capitalroots.org,Fri  11am-12:15pm,Year-round,Y,YR,42.6465,-73.75482,Y,Y,Y,"(42.6465, -73.75482)"
Albany,Veggie Mobile-St. Sophia Church,440 Whitehall Rd. Albany,440 Whitehall Road,Albany,NY,12208,Audrey Bridge,5182748685,http://www.capitalroots.org,Thu 12:15pm-1pm,Year-round,Y,YR,42.65197,-73.81477,Y,Y,Y,"(42.65197, -73.81477)"
Albany,Veggie Mobile-St. Sophia's,440 Whitehall Road Albany,440 Whitehall Road,Albany,NY,12208,Audrey Bridge,5182748685,http://www.capitalroots.org,Wed 12:15pm-1pm,Year-round,Y,YR,42.65244,-73.81416,Y,Y,Y,"(42.65244, -73.81416)"
Albany,Veggie Mobile-Steamboat Square Apts,20 Rensselaer St. Albany,20 Rensselaer Street,Albany,NY,12202,Audrey Bridge,5182748685,http://www.capitalroots.org,Wed 11am-11:45am,Year-round,Y,YR,42.64093,-73.75363,Y,Y,Y,"(42.64093, -73.75363)"
Albany,Veggie Mobile-Thurlow Terrace,2 Thurlow Terrace Albany,2 Thurlow Terrace,Albany,NY,12203,Audrey Bridge,5182748685,http://www.capitalroots.org,Wed 12pm-1pm,Year-round,Y,YR,42.66032,-73.77248,Y,Y,Y,"(42.66032, -73.77248)"
Albany,Veggie Mobile-Whitney Young Health Ctr,920 Lark Drive Albany,920 Lark Drive,Albany,NY,12210,Audrey Bridge,5182748685,http://www.capitalroots.org,Tue 11am-12pm,Year-round,Y,YR,42.66215,-73.74859,Y,Y,Y,"(42.66215, -73.74859)"
Albany,Voorheesville Farmers' Market,"First United Methodist Church lot, 68 Maple Ave.",68 Maple Ave,Voorheesville,NY,12186,Dianne Luci,5187654536,https://www.facebook.com/VoorheesvilleFarmersMarket,Wed  3:30pm-6:30pm,June 15-September 28,Y,M,42.64892,-73.92991,N,N,Y,"(42.64892, -73.92991)"
Allegany,Alfred Farmers' Market,Village Band Stand Main St.,Main Street and Saxon Drive,Alfred,NY,14802,Holly Harris,6073820885,http://www.alfredfarmersmarket.com,Sunday  11am-3pm,July-October,Y,M,42.25396,-77.7904,N,Y,Y,"(42.25396, -77.7904)"
Allegany,Angelica Farmers' Market,Park Circle,28 Park Circle,Angelica,NY,14709,Staci Curry,5854663787,,Saturday  9am-1pm,June 1-September 24,Y,M,42.3066,-78.01619,N,N,Y,"(42.3066, -78.01619)"
Allegany,Belmont Farmers' Market,"Grange Hall Lawn, 32 Willets Ave Rt 19",32 Willets Ave,Belmont,NY,14813,Phyllis Couture,7169423710,,Thursday  11am-5pm,May 26-October 27,Y,P/M,42.22613,-78.03994,N,Y,Y,"(42.22613, -78.03994)"
Allegany,Houghton Farmers' Market,Houghton College Route 19,1 Willard Ave,Houghton,NY,14744,Stephen Demarte,7165605594,,Friday  1pm-6pm,June 3-October 28,Y,M,42.42556,-78.15706,N,N,Y,"(42.42556, -78.15706)"
Allegany,On the River Farm Stand,"7579 Route 19 , Belfast",7579 Route 19,Belfast,NY,14711,Stephen Demarte,7165605594,,"Friday  3pm-7pm, Saturday  12pm-7pm",Year-round,Y,YR,42.34485,-78.11563,N,N,Y,"(42.34485, -78.11563)"
Allegany,Wellsville Farmers' Market,Giant Food Mart 44 Park Ave.,44 Park Ave.,Wellsville,NY,14895,Daniel Sprung,5856106181,,Thursday  11am-5pm,June 16-October 6,Y,M,42.120079,-77.947159,N,N,Y,"(42.120079, -77.947159)"
Bronx,Bissel Gardens Farmers' Market,Baychester Ave. & E 241 St.,Baychester Ave and East 241st St,Bronx,NY,10470,Heather Warren-Dombrowa,3474272547,http://www.bisselgardens.org,Sat/Wed  9am-5pm,July 9-November 19,Y,M,40.90151,-73.84702,N,Y,Y,"(40.90151, -73.84702)"
Bronx,Bronx Borough Hall Greenmarket,Grand Concourse btwn 161st & 163rd Sts.,901 Grand Concourse,Bronx,NY,10452,Chelsea Whittaker,2127887476,http://www.grownyc.org/greenmarket,Tuesday  8am-4pm,June 7-November 22,Y,M,40.82715,-73.92276,N,Y,Y,"(40.82715, -73.92276)"
Bronx,Harvest Home Bronx Museum Farmers' Market,"Grand Concourse & E. 165th St., at Bronx Museum of the Arts",1040 Grand Concourse,Bronx,NY,10456,Maritza Owens,2128283361,http://www.harvesthomefm.org,Sunday  8am-4pm,July 10-November 20,N,M,40.83113,-73.9201,N,Y,Y,"(40.83113, -73.9201)"
Bronx,Harvest Home Co-op City Farmers' Market,Ash Loop & Aldrich St.,199 Aldrich St.,Bronx,NY,10475,Maritza Owens,2128283361,http://www.harvesthomefm.org,Wednesday  8am-4pm,July 6-November 23,Y,M,40.87025,-73.83097,N,Y,Y,"(40.87025, -73.83097)"
Bronx,Harvest Home Hunts Point Farmers' Market,"Monsignor Del Valle Square, btwn Southern & Bruckner Blvds.",925 Hunts Point Ave.,Bronx,NY,10474,Maritza Owens,2128283361,http://www.harvesthomefm.org,Wednesday  8am-4pm,June 15-November 23,Y,M,40.82073,-73.89088,N,Y,Y,"(40.82073, -73.89088)"
Bronx,Harvest Home Jacobi  Hospital Farmers' Market,1400 Pelham Parkway,1400 Pelham Pkwy,Bronx,NY,10461,Maritza Owens,2128283361,http://www.harvesthomefm.org,Tue/Fri  8am-4pm,May 10-November 22,Y,P/M,40.85431,-73.8467,N,Y,Y,"(40.85431, -73.8467)"
Bronx,Harvest Home Mt. Eden Farmers' Market,Claremont Park Mt. Eden & Morris Aves.,Mt Eden Pkwy and Morris Ave,Bronx,NY,10457,Maritza Owens,2128283361,http://www.harvesthomefm.org,Tue/Thu  8am-4pm,May 24-November 23,Y,P/M,40.84305,-73.90947,N,Y,Y,"(40.84305, -73.90947)"
Clinton,Rehoboth Homestead Farm Stand,3071 Route 9 Peru,3071 Route 9,Peru,NY,12972,Beth Spaugh,5186437822,http://www.rhomestead.com,Tuesday  3pm-6pm,June 1-October 30,Y,M,44.56491,-73.44945,N,N,Y,"(44.56491, -73.44945)"
Bronx,Harvest Home N Central Bronx Farmers' Market,Mosholu Parkway North & Jerome Ave.,Jerome Ave and East Mosholu Pkwy North,Bronx,NY,10467,Maritza Owens,2128283361,http://www.harvesthomefm.org,Wednesday  8am-4pm,July 6-November 23,Y,M,40.88046,-73.88385,N,Y,Y,"(40.88046, -73.88385)"
Bronx,Harvest Home Soundview Farmers' Market,Morrison Ave. btwn Westchester Ave. & Harrod Pl.,Morrison Ave and Harrod Place,Bronx,NY,10472,Maritza Owens,2128283361,http://www.harvesthomefm.org,Saturday  8am-4pm,June 18-November 19,Y,M,40.82905,-73.87443,N,Y,Y,"(40.82905, -73.87443)"
Bronx,Harvest Home St. Marys Park Farmers' Market,149th St. btwn St. Ann & Jackson Aves.,646 E 149th St,Bronx,NY,10455,Maritza Owens,2128283361,http://www.harvesthomefm.org,Thursday  8am-4pm,July 7-November 17,Y,M,40.81099,-73.91173,N,Y,Y,"(40.81099, -73.91173)"
Bronx,Healthy Choice Farmers' Market,1434 Longfellow Ave. Bronx,1434 Longfellow Ave.,Bronx,NY,10459,Sandy Helms,7185893060,,Thursday  10am-1:30pm,April 7-November 17,Y,P/M,40.830746,-73.886882,N,N,Y,"(40.830746, -73.886882)"
Bronx,La Familia Verde Farmers' Market,"Tremont Park on Tremont Ave., btwn LaFontaine & Arthur Aves.",East Tremont Ave and Arthur Ave,Bronx,NY,10457,Heidi Hynes,7185831765,http://www.lafamiliaverde.org,Tuesday  8am-3pm,July 12-November 15,Y,M,40.84643,-73.89334,N,Y,Y,"(40.84643, -73.89334)"
Bronx,"Learn it, Grow it, Eat it Youthmarket",169th St. & Boston Rd. at McKinley Square,E. 169th St. and Boston Rd.,Bronx,NY,10456,Kori Petrovic,2127887476,http://www.grownyc.org/youthmarket,Wednesday  10am-3pm,July 6-November 23,Y,M,40.83121,-73.90022,N,Y,Y,"(40.83121, -73.90022)"
Bronx,Lincoln Hospital Greenmarket,149th St btwn Park and Morris Aves Bronx,East 149th St and Morris Ave,Bronx,NY,10451,Chelsea Whittaker,2127887476,http://www.grownyc.org/greenmarket,Fri/Tue  8am-3pm,June 24-November 22,Y,M,40.81739,-73.92274,N,Y,Y,"(40.81739, -73.92274)"
Bronx,Mott Haven Farmers' Market,"Padre Plaza Community Garden, 139th St. & St. Ann's Ave.",E. 139th & 283 St. Saint Anns Ave,Bronx,NY,10454,Sheila Young,7189241143,,Tuesday  10am-4pm,July 12-November 15,Y,M,40.80782,-73.91697,N,Y,Y,"(40.80782, -73.91697)"
Bronx,New York Botanical Garden Greenmarket,"Mosholu Gate on Southern Blvd., Mosholu Pkwy & Bedford Park Blvd.",2855 Southern Blvd,Bronx,NY,10458,Chelsea Whittaker,2127887476,http://www.grownyc.org/greenmarket,Wednesday  9am-3pm,June 22-October 26,Y,M,40.866408,-73.882303,N,Y,Y,"(40.866408, -73.882303)"
Bronx,Norwood Youthmarket,E Gun Hill Rd. & Dekalb Ave.,Dekalb Ave. and East Gun Hill Rd.,Bronx,NY,10467,Kori Petrovic,2127887476,http://www.grownyc.org/youthmarket,Thursday  12pm-7pm,July 7-November 17,Y,M,40.88223,-73.88048,N,Y,Y,"(40.88223, -73.88048)"
Bronx,Parkchester Greenmarket,Westchester Ave. & White Plains Rd.,Westchester Ave and White Plains Rd,Bronx,NY,10472,Chelsea Whittaker,2127887476,http://www.grownyc.org/greenmarket,Friday  8am-4pm,June 10-November 18,Y,M,40.83301,-73.86277,N,Y,Y,"(40.83301, -73.86277)"
Bronx,Poe Park Greenmarket,E 192nd St. btwn Grand Concourse & Valentine Ave.,200 E. 192nd St,Bronx,NY,10458,Chelsea Whittaker,2127887476,http://www.grownyc.org/greenmarket,Tuesday  8am-3pm,June 28-November 22,Y,M,40.86412,-73.8955,N,Y,Y,"(40.86412, -73.8955)"
Bronx,Project EATS Montefiore WFC Farm Stand,3011 Boston Rd.,3011 Boston Rd.,BRONX,NY,10469,Matt Linder,2126121528,http://www.projecteats.org,Wednesday  2pm-6pm,May 31-November 30,Y,P/M,40.8697,-73.85733,N,N,Y,"(40.8697, -73.85733)"
Bronx,PS 721X Farm Stand,2697 Westchester Ave.,2697 Westchester Av.,Bronx,NY,10461,Jeremy Kottkamp,9172672119,,Thursday  9:30am-1pm,May 12-October 27,Y,P/M,40.84248,-73.83865,N,N,Y,"(40.84248, -73.83865)"
Bronx,Riverdale Neighborhood House Youthmarket,"420 W 256th St. , Corner of Mosholu Ave.",W 256th St. and Mosholu Ave.,Bronx,NY,10466,Kori Petrovic,2127887476,http://www.grownyc.org/youthmarket,Thursday  1pm-7pm,July 7-October 27,Y,M,40.90388,-73.90313,N,Y,Y,"(40.90388, -73.90313)"
Bronx,Riverdale Y Sunday Farmers' Market,Independence Ave. W. 237th St.,649 W 237th St,Bronx,NY,10463,Doris Kaufman,7185488200,http://www.riverdaley.org,Sunday  9am-2pm,May-November,N,P/M,40.888442,-73.912784,N,N,Y,"(40.888442, -73.912784)"
Bronx,South Bronx Farmers' Market,"138th St btwn Willis & Alexander Aves. , Mott Haven",330-398 East 138th Street,Bronx,NY,10454,Lily Kesselman,5164186355,http://www.southbronxfarmersmarket.com,Saturday  10am-4pm,June 18-November 19,Y,M,40.80913,-73.92297,N,Y,Y,"(40.80913, -73.92297)"
Bronx,Taqwa Community Farmers' Market,90 West Ogden Ave. & 164th st,90 West Ogden Ave. at 164th St.,Bronx,NY,10452,Bobby Watson,9178052866,,Saturday  9am-4pm,July 9-November 12,N,M,40.82957,-73.92104,N,N,Y,"(40.82957, -73.92104)"
Bronx,Wholesale Greenmarket,Halleck St. & Viele Ave. Auxiliary Lot,Halleck Street and Viele Avenue,Bronx,NY,10474,Chelsea Whittaker,2127887476,,Tue-Sat  2am-8am,April 8-December 31,Y,P/M/X/W,40.80752,-73.87989,N,N,Y,"(40.80752, -73.87989)"
Broome,Broome County Regional Saturday Farmers' Market,840 Upper Front St. Binghamton,840 Upper Front St.,Binghamton,NY,13905,Dina Truncali,6075845010,http://www.bcregionalmkt.com,Saturday  9am-1pm,Year-round,Y,YR,42.12921,-75.90609,Y,Y,Y,"(42.12921, -75.90609)"
Broome,Broome County Regional Tuesday Farmers' Market,840 Upper Front St. Binghamton,840 Upper Front St.,Binghamton,NY,13905,Dina Truncali,6075845010,http://www.bcregionalmkt.com,Tuesday  4pm-7pm,July 19-October 25,N,M,42.12921,-75.90609,N,N,Y,"(42.12921, -75.90609)"
Broome,CHOWbus Mobile Market,"Contact market for locations and times, (607)-724-9130 ext 331",3 Otsiningo Street,Binghamton,NY,13903,Michael Leahey,6077249130,http://www.broomecouncil.net,Mon-Fri,Year-round,Y,YR,42.09963,-75.89718,Y,Y,Y,"(42.09963, -75.89718)"
Broome,Deposit Farmers' Market,"First United Methodist Church WIC Clinic , 107 Second St.",107 Second St,Deposit,NY,13754,Jeanne Darling,6078656531,http://www.ccedelaware.org,Thursday  10am-2pm,Only Aug 18 & Sep 15,Y,M,42.06166,-75.42605,N,N,Y,"(42.06166, -75.42605)"
Broome,Downtown Binghamton Farmers' Market,Court House Square 80 Collier St.,80 Collier St,Binghamton,NY,13901,Eric Denk,6072069471,http://www.binghamtonfarmersmarket.com,Tue/Fri  9am-2pm,June 10-October 28,Y,M,42.09836,-75.91157,Y,Y,Y,"(42.09836, -75.91157)"
Broome,Endicott Visitor Center Farmers' Market,300 Lincoln Ave. Endicott,300 Lincoln Ave.,Endicott,NY,13760,Monica Jordan,6077575355,http://www.endicottny.com,Thursday  4:30pm-7pm,June 2-October 13,Y,M,42.09805,-76.05142,N,N,Y,"(42.09805, -76.05142)"
Broome,Koo Koose Farmers' Market,Village Memorial Park Front St. Deposit,149 Front Street,Deposit,NY,13754,Dorothy Crantz,6074672956,,Saturday  9am-1pm,June-September,Y,M,42.061003,-75.425572,N,N,Y,"(42.061003, -75.425572)"
Broome,Vestal Farmers' Market,"Library parking lot, near museum, 320 Vestal Pkwy E (Rt. 434)",320 Vestal Pkwy E,Vestal,NY,13850,Emil Bielicici,6077481514,https://www.facebook.com/VestalFarmersMarket,Sat/Wed  9am-1pm,May 28-November 23,Y,P/M,42.087322,-76.045678,N,N,Y,"(42.087322, -76.045678)"
Cattaraugus,Canaseraga Farmers' Market,"Firemans Memorial Park, Main Street across from school",4-8 Main Street,Canaseraga,NY,14822,Sue Paine,6075458311,,Saturday 9am-2pm,June-October,N,M,42.46131,-77.77724,N,N,Y,"(42.46131, -77.77724)"
Cattaraugus,Canticle Farm Stand,"3809 Old State Road, Allegany",3809 Old State Road,Allegany,NY,14706,Mark Printz,7163789714,http://www.canticlefarm.org,"Tue only Dec-June 14, Tue & Fri  June- Nov. 2pm-6pm","year round, December-May  Tue  2pm-6pm",Y,yr,42.094426,-78.506766,N,Y,Y,"(42.094426, -78.506766)"
Cattaraugus,Childs Blueberries Farm Stand,3172 Cooper Hill Road  Hinsdale,3172 Cooper Hill Road,Hinsdale,NY,14743,Dan Childs,7165572334,http://www.childsblueberries.com,Mon-Fri  9am-7pm,Year-round,N,YR,42.229,-78.47579,N,N,Y,"(42.229, -78.47579)"
Cattaraugus,Franklinville Farmers' Market,13 Park Square Rt 16,13 Park Sq,Franklinville,NY,14737,Phyllis Couture,7169423710,,Wednesday  3pm-6pm,June 15-October 26,Y,M,42.33772,-78.45771,N,Y,Y,"(42.33772, -78.45771)"
Cattaraugus,Miller's Farm Market,1685 Olean Portville Rd. Olean,1685 Olean Portville Rd.,Olean,NY,14760,Keith Miller,7163722521,,"Mon-Sat  9am-6pm, Sunday  9am-5pm",April 14-December 24,Y,P/M/X,42.071439,-78.39814,N,N,Y,"(42.071439, -78.39814)"
Cattaraugus,Olean Southern Tier Farmers' Market,Tractor Supply Store 1900 Constitution Ave.,1900 Constitution Ave,Olean,NY,14760,Phyllis Couture,7169423710,,Friday  2pm-6pm,May 20-October 28,Y,P/M,42.08294,-78.45503,N,Y,Y,"(42.08294, -78.45503)"
Cattaraugus,R.E.A.P. Olean Farmers' Market,Olean Mall  400 N. Union St.,400 N. Union St.,Olean,NY,14760,Mark Schindlbeck,7166769181,https://www.facebook.com/olean.farmers.market/,Saturday  8am-1pm,May 14-October 29,Y,P/M,42.08329,-78.42987,N,Y,Y,"(42.08329, -78.42987)"
Cattaraugus,Salamanca Farmers' Market,12 Park Ave. Jefferson Park,12 Park Ave,Salamanca,NY,14779,Phyllis Couture,7169423710,,Tuesday  11am-5pm,May 24-October 25,Y,P/M,42.15497,-78.71739,N,Y,Y,"(42.15497, -78.71739)"
Cattaraugus,South Dayton Farmers' Market,Village Park  Rt 322 & Park St,Rt 322 and Park st.,South Dayton,NY,14138,Linda Dewey,7166729004,https://www.facebook.com/pages/South-Dayton-Farmers-Market/1662449950658252,Saturday  9am-1pm,June 18-October 15,Y,M,42.3609,-79.04925,N,N,Y,"(42.3609, -79.04925)"
Cayuga,Auburn Farmers' Market,96 State Street  Curley's Restaurant Pkg Lot,96 State Street,Auburn,NY,13021,Mark Soper,3157048609,http://www.auburnfarmerscoopmarketinc.com,Tue/Thu/Sat  7am-2pm,June 2-October 29,Y,M,42.93406,-76.56985,N,Y,Y,"(42.93406, -76.56985)"
Cayuga,Moravia Farmers' Market,Kinney Drug Store pkg lot 130 Main St.,130 Main St,Moravia,NY,13118,Barbara Flynn,3154962235,,Thursday  10am-5pm,June 9-October 27,Y,M,42.71209,-76.42079,N,N,Y,"(42.71209, -76.42079)"
Cayuga,Owen Orchards,8174 Grant Ave.  Weedsport,8174 Grant Ave.,Weedsport,NY,13166,Gordon Tripp,3152524097,http://www.owenorchard.com,"Monday-Friday  9am-6pm, Saturday  9am-5pm, Sunday  10am-4pm",August-February,N,M/X/W/P,43.01314,-76.50749,N,N,Y,"(43.01314, -76.50749)"
Cayuga,Village of Aurora Farmers' Market,"Wells College Softball Field Parking Lot, Poplar Ridge Rd. and State Route 90",State Route 90 and Poplar Ridge Road,Aurora,NY,13026,Marian Brown,3153643304,http://www.auroranyfarmersmarket.com,Saturday  9am-1pm,June 4-October 29,Y,M,42.73862,-76.70211,N,N,Y,"(42.73862, -76.70211)"
Chautauqua,Abers Acres Farm Stand,884 Route 394  Kennedy,884 Rte. 394,Kennedy,NY,14747,Sue Abers,7162672431,http://www.abersacres.com,Daily  9am-6:30pm,Year-round,Y,YR,42.14495,-79.10996,N,Y,Y,"(42.14495, -79.10996)"
Chautauqua,Anderson's Produce Farm Stand,3058 Terry Rd.  Sinclairville,3058 Terry Road,Sinclairville,NY,14782,Barb Swan,7166659440,,Daily  10am-6pm,July 25-October 15,Y,M,42.231548,-79.255691,N,N,Y,"(42.231548, -79.255691)"
Chautauqua,Downtown Jamestown Farmers' Market,Cherry St. btwn W 2nd & W 3rd Sts.,Cherry and West 2nd St,Jamestown,NY,14701,Christina King,7166642477,http://www.jamestownrenaissance.org,"Thurs  12pm-6pm, Sept/Oct 12pm-4pm",June 2-October 27,Y,M,42.09567,-79.24234,N,Y,Y,"(42.09567, -79.24234)"
Chautauqua,Dunkirk Farmers' Market,Dunkirk Senior Center 45 Cliffstar Ave,45 Cliffstar Avenue,Dunkirk,NY,14048,Nicole Waite,7163669876,http://www.dunkirktoday.com/things-to-do/community-gardens,Wednesday  9am-2pm,June 15-September 28,Y,M,42.48555,-79.32285,Y,Y,Y,"(42.48555, -79.32285)"
Chautauqua,Falconer Farmers' Market,Davis Park  W. Main & Homestead Sts.,W Main St and Homestead St,Falconer,NY,14733,DeEtte Dispenza,7166654400,,Saturday  9am-2pm,June 4-October 29,Y,M,42.11763,-79.19952,N,N,Y,"(42.11763, -79.19952)"
Chautauqua,Fredonia Farmers' Market,Village Hall Barker Commons 9-11 Church St.,11 Church St,Fredonia,NY,14063,Anneliese Bruegel,7169652716,,Saturday  9am-1pm,May 21-October 29,Y,P/M,42.44064,-79.33235,N,Y,Y,"(42.44064, -79.33235)"
Chautauqua,Fredonia WINTER Farmers' Market,321 East Main St. (Rt 20) Masonic Forest Lodge,321 East Main St. (Rte 20),Fredonia,NY,14063,Anneliese Bruegel,7169652716,http://www.facebook.com/FredoniaFarmersMarket,Saturday 10am-1pm,November 5-May 13,Y,M/X/W/P,42.44764,-79.315,N,Y,Y,"(42.44764, -79.315)"
Chautauqua,Hathaway Farms Farm Stand,"9595 East Main Road Route 20 , 1.5 miles east of Ripley",9595 East Main Road Route 20,Ripley,NY,14775,Patricia Hathaway,7167536072,,"Mon-Sat  10am-6pm, Sunday  12pm-6pm",June 1-November 1,Y,M,42.28014,-79.68442,N,Y,Y,"(42.28014, -79.68442)"
Chautauqua,Lakewood Farmers' Market,Chautauqua Ave.,Chautauqua Ave and West Second St,Lakewood,NY,14750,Joe Johnson,7167638557,http://www.lakewoodny.com,Tuesday  1pm-5pm,June 7-August 30,Y,M,42.10189,-79.3262,N,N,Y,"(42.10189, -79.3262)"
Chautauqua,Richard Feinen Farms Farm Stand,3251 Route 39 Forestville,3251 Route 39,Forestville,NY,14062,Richard Feinen,7166805462,,Daily 10am-6pm,June 1-November 31,Y,M,42.46786,-79.27186,N,N,Y,"(42.46786, -79.27186)"
Chautauqua,Roberto Fred Farm Stand,10655 Temple Rd Dunkirk,10655 Temple Rd,Dunkirk,NY,14048,Roberto Fred,7163667200,,Daily 9am-6pm,June-December,Y,M,42.464201,-79.361694,N,N,Y,"(42.464201, -79.361694)"
Chautauqua,Westfield Farmers' Market,Rt 20 & Rt 394,Rt 20 and Rt 394,Westfield,NY,14787,Arianne Correll,7166401166,http://www.westfieldny.com/farmers-market,Saturday  9am-2pm,May 28-September 24,Y,P/M,42.32203,-79.57812,N,N,Y,"(42.32203, -79.57812)"
Chemung,Elmira Eastside Farmers' Market,West Lawn of Holiday Inn  760 E. Water St.,760 East Water St,Elmira,NY,14901,Andrew Fagan,6077344453,http://www.ccechemung.org,Friday  2:30pm-6pm,June 10-October 21,Y,M,42.08905,-76.7922,Y,Y,Y,"(42.08905, -76.7922)"
Chemung,Elmira Wisner Park Farmers' Market,Wisner Park 200 N Main Street,200 N Main St,Elmira,NY,14901,Jennifer Herrick,6077340341,http://www.wisnermarket.org,Thursday  10am-2pm,June 21-September 29,Y,M,42.08943,-76.80801,N,N,Y,"(42.08943, -76.80801)"
Chemung,Grove Park Farmers' Market,4th St. & Walnut Ave. Grove Park,Walnut Ave and West 4th St,Elmira,NY,14901,Matthew Glenn,6075464535,https://www.facebook.com/GroveParkFarmersMarket,Monday  3pm-6pm,June 6-October 30,Y,M,42.0921,-76.82013,N,Y,Y,"(42.0921, -76.82013)"
Chemung,Teal Park Farmers' Market,"Horseheads , corner of S. Main and Steuben St.",S. Main and Steuben St.,Horseheads,NY,14845,Jabe Warren,5705373636,,Saturday  10am-1pm,June 25-September 24,Y,M,42.16417,-76.81919,N,N,Y,"(42.16417, -76.81919)"
Chenango,Coventry Farmers' Market,"Coventry Town Hall, 1839 State Hwy Route 235",1839 NY-235,Greene,NY,13778,Ellen Evans,6076567319,http://townofcoventryny.com,"Sunday  12pm-4pm , Thursday  11am-4pm",June 30-October 20,Y,M,42.291625,-75.640573,N,N,Y,"(42.291625, -75.640573)"
Chenango,Norwich Farmers' Market,"East Park  75 North Broad St., Winter weather: inside Howard Johnson",75 North Broad St.,Norwich,NY,13815,Sandy Pierce,6073344928,https://www.facebook.com/NorwichNYFarmersMarket,Wed  10am-6pm,Year-round,Y,YR,42.53363,-75.524,N,Y,Y,"(42.53363, -75.524)"
Chenango,Oxford Farmers' Market,Lafayette Park,Lafayette Park,Oxford,NY,13830,Mina Takahashi,6078435699,https://www.facebook.com/OxfordNYFarmersMarket,"Saturday 9am-12pm, Wednesdays 11am-1pm",May-October,N,P/M,42.44255,-75.5983,N,N,Y,"(42.44255, -75.5983)"
Chenango,Oxford WINTER Farmers' Market,"St. Paul's Parish House Comm Ctr, 34 Main St. Oxford",34 Main St.,Oxford,NY,13830,Mina Takahashi,6078435699,https://www.facebook.com/OxfordNYFarmersMarket,1st Saturday  10am-1pm,November-April,N,X/W/P,42.440234,-75.594121,N,N,Y,"(42.440234, -75.594121)"
Chenango,Sunrise Farms Farm Stand,252 Plymouth-North Norwich Rd.  Plymouth,252 Plymouth-North Norwich Rd.,Plymouth,NY,13832,Kathryn Clemens,6073365834,,Daily  7am-8pm,Year-round,Y,YR,42.62427,-75.59152,N,N,Y,"(42.62427, -75.59152)"
Clinton,Country Dreams Farm Farm Stand,260 Pellerin Road Plattsburgh,260 Pellerin Rd.,Plattsburgh,NY,12901,Melissa Monty-Provost,5185656051,http://www.countrydreamsfarm.com,Daily  8am-5pm,July 1-October 31,Y,M,44.74671,-73.53235,N,N,Y,"(44.74671, -73.53235)"
Clinton,Keeseville Farmers' Market,Next to Adirondack Hardware on Front St.,1721 Front St,Keeseville,NY,12944,Vicky Rayl,5186517680,http://www.adirondackfarmersmarket.com,Tuesday  10am-2pm,June 21-August 30,Y,M,44.50436,-73.48061,N,Y,Y,"(44.50436, -73.48061)"
Clinton,Northern Orchard Farm Stand,470 Union Road Peru,470 Union Road,Peru,NY,12972,Cynthia Mulbury,5186439718,,Daily  10am-6pm,May 1-December 23,Y,P/M/X,44.55639,-73.53716,N,Y,Y,"(44.55639, -73.53716)"
Clinton,Plattsburgh Farmers' & Crafters Market,"City parking lot , Durkee & Broad St.",Broad St and Durkee St,Plattsburgh,NY,12901,Patricia Parker,5183100719,https://www.facebook.com/pages/Plattsburgh-Farmers-and-Crafters-Market/121588034547095,"Saturday  9am-2pm, June 29 - Oct 5, Wed  10am-2pm",May 7-October 8,Y,P/M,44.69535,-73.45226,N,Y,Y,"(44.69535, -73.45226)"
Clinton,Rouses Point Farmers' Market,Dodge Memorial Library 144 Lake St.,144 Lake Street,Rouses Point,NY,12979,Connie Cassevaugh,5182973536,,Friday  3pm-7pm,June 24-September 2,Y,M,44.99029,-73.36438,N,N,Y,"(44.99029, -73.36438)"
Clinton,Shield's Vegetables / Dyer Farms,6303 State Route 22 Plattsburgh,6303 State Route 22,Plattsburgh,NY,12901,Sam Dyer,5185610473,,Daily  10am-6pm,July 16-October 31,Y,M,44.73789,-73.47064,N,N,Y,"(44.73789, -73.47064)"
Columbia,City of Hudson Farmers' Market,DMV parking lot Sixth & Columbia Sts.,Columbia St and North 6th St,Hudson,NY,12534,Lisa Walsh,5188287217,http://www.hudsonfarmersmarketny.com,Saturday  9am-1pm,May 7-November 19,Y,P/M,42.24866,-73.78369,Y,Y,Y,"(42.24866, -73.78369)"
Columbia,Copake Hillsdale Farmers' Market,Roeliff Jansen Park 9140 Route 22,9140 Route 22,Hillsdale,NY,12529,Diane Creed,5183251430,http://www.copakehillsdalefarmersmarket.com,Saturday  9am-1pm,May 28-October 29,Y,P/M,42.17077,-73.51771,Y,Y,Y,"(42.17077, -73.51771)"
Columbia,Hudson WINTER Farmers' Market,601 Union St.,601 Union St.,Hudson,NY,12534,Marilyn Cederoth,5189650552,,Saturday  10am-1pm,"Dec, February-April",N,X/W/P,42.24738,-73.78535,N,N,Y,"(42.24738, -73.78535)"
Columbia,Kinderhook Farmers' Market,Kinderhook Village Square 1 Hudson Street,US Route 9 and Hudson St,Kinderhook,NY,12106,Kim Voltz,5187559293,http://www.kinderhookfarmersmarket.com,Sat  8:30am-12:30pm,May 7-October 8,Y,P/M,42.3954,-73.69817,N,N,Y,"(42.3954, -73.69817)"
Columbia,New Lebanon Country Farmers' Market,36 Old Route 20,36 Old Route 20,New Lebanon,NY,12125,Chelsea Vigue,5083173502,http://www.facebook.com/newlebanoncountrymarket,Sunday  10am-2pm,June 5-October 16,Y,M,42.47165,-73.37991,N,N,Y,"(42.47165, -73.37991)"
Columbia,Philmont Farmers' Market,116 Main Street,116 Main St,Philmont,NY,12565,Sally Baker,5186970038,http://www.pbinc.org/revitalization,Sunday  10am-2pm,May 29-October 16,Y,P/M,42.24868,-73.65097,Y,Y,Y,"(42.24868, -73.65097)"
Columbia,Upstreet Farmers' Market,7th Street Park Hudson,7th Street Park,Hudson,NY,12534,Tess Parker,6033616889,http://facebook.com/upstreetmarket,Wednesday  4pm-7pm,May 25-October 26,Y,P/M,42.24744,-73.78299,N,N,Y,"(42.24744, -73.78299)"
Cortland,Cincinnatus Farmers' Market,"Cortland-Chenango Rural Services, 2704 Lower Cincinnatus Rd.",2704 Lower Cincinnatus Rd,Cincinnatus,NY,13040,Paul Halstead,6078368972,,Saturday  9am-12pm,May 1-November 30,Y,P/M,42.53812,-75.89662,N,N,Y,"(42.53812, -75.89662)"
Cortland,City of Cortland Farmers' Market,Main St. btwn Court & Orchard Sts.,Main St and Orchard St,Cortland,NY,13045,Julie Maddren,6077588373,,Tue/Sat  8am-2pm,May 24 -October 29,Y,P/M,42.60028,-76.18044,N,Y,Y,"(42.60028, -76.18044)"
Cortland,Dave's Veggies Farm Market,"5178 NYS Route 41 , Homer",5178 NY-41,Homer,NY,13077,David Root,6075430226,http://www.davesveggies.com,"Mon-Sat  10am-7pm, Sunday 10am-6pm",May 1-October 31,Y,P/M,42.659118,-76.203042,N,Y,Y,"(42.659118, -76.203042)"
Cortland,Homer Farmers' Market,First Religious Society's Green  on Main St.,South Main St and Central Park Pl,Homer,NY,13077,Bob Holdsworth,6072994920,,"Saturday  9am-1pm, Wed  4pm-7pm",May7-October 29,Y,P/M,42.63595,-76.17869,N,Y,Y,"(42.63595, -76.17869)"
Cortland,Virgil Farmers' Market,Virgil School 4 Corners Cortland,Route 215 and Route 392,Virgil,NY,13045,Christine Applegate,6078356205,,Saturday  9am-12pm,June 18-October 8,Y,M,42.51057,-76.19472,N,N,Y,"(42.51057, -76.19472)"
Delaware,Catskill Cattle Farm Stand,96 Laurel Bank Ave,96 Laurel Bank Ave,Deposit,NY,13754,Lonny or Liz Schaefer,6077276320,http://www.catskillcattle.com,Sun-Sat  8am-8pm,May 1-October 31,Y,M,42.07063,-75.40936,N,N,Y,"(42.07063, -75.40936)"
Delaware,Delhi Farmers' Market,Courthouse Square Main St.,Main St and Court St,Delhi,NY,13753,Meg Kennedy,6072938128,,Wednesdays,June 1-September 28,Y,M,42.27792,-74.91652,N,N,Y,"(42.27792, -74.91652)"
Delaware,Franklin Farmers' Market,Chapel Hall 25 Institute St.  Village of Franklin,25 Institute St.,Franklin,NY,13775,Ellen Curtis,6078295631,,Sunday  10am-2pm,May 29-October 9,Y,P/M,42.33901,-75.1672,N,N,Y,"(42.33901, -75.1672)"
Delaware,Hobart Farmers' Market,Stamford Town Hall Green 101 Maple Ave.,101 Maple Ave,Hobart,NY,12167,Andrew Flach,6075384007,https://www.facebook.com/HobartFarmersMarket/,Friday  4pm-7pm,June 3-September 30,Y,M,42.37016,-74.66867,N,N,Y,"(42.37016, -74.66867)"
Delaware,Pakatakan Farmers' Market,Round Barn of Halcottville 46676 State Hwy 30,46676 State Route 30,Halcottsville,NY,12438,Georgianna Fairlie,8452544290,http://roundbarnmarket.org,Saturday  9am-2pm,May 14-October 8,Y,P/M,42.20003,-74.596774,N,N,Y,"(42.20003, -74.596774)"
Delaware,RambleBramble Farm Stand,56508 State Hgwy 10 South Kortright,56508 NY-10,South Kortright,NY,13842,Jamie Bianco,6075384036,http://www.ramblefarm.com,Mon-Thu  9am-7pm,May 27-October 31,Y,P/M,42.34342,-74.724,N,N,Y,"(42.34342, -74.724)"
Delaware,Sidney Farmers' Market,"Video Entertainment Plus parking lot, 89 Main St.",89 Main St,Sidney,NY,13838,Jeanne Darling,6078656531,http://www.ccedelaware.org,"Tuesday  2pm-6pm, (4th Tue of Month 10a-6p)",June 28-August 30,Y,M,42.31426,-75.39045,N,N,Y,"(42.31426, -75.39045)"
Delaware,Walton Farmers' Market,UHS Delaware Valley Hospital 2 Titus Place,2 Titus Place,Walton,NY,13856,Jeanne Darling,6078656531,http://www.ccedelaware.org,1st & 3rd Wed 10-2,July 6-October 19,Y,M,42.16464,-75.12792,N,N,Y,"(42.16464, -75.12792)"
Dutchess,Amenia Farmers' Market,Amenia Town Hall 4988 Route 22,4974 Route 22,Amenia,NY,12501,Sophie Purdy Meili,4133297389,http://www.ameniafarmersmarket.com,Fridays  3pm-7pm,May-October,N,P/M,41.851201,-73.555719,N,Y,Y,"(41.851201, -73.555719)"
Dutchess,Amenia WINTER Farmers' Market,Amenia Town Hall 4988 Route 22,4988 New York 22,Amenia,NY,12501,Sophie Purdy Meili,4133297389,http://www.ameniafarmersmarket.com,"Saturday  10am-2pm, 1st & 3rd Saturday  Jan-Apr",November-April,N,M/X/W/P,41.851397,-73.554943,N,Y,Y,"(41.851397, -73.554943)"
Dutchess,Arlington Farmers' Market,"Vassar College Alumni Lawn , 123 Raymond Ave. Poughkeepsie",123 Raymond Ave,Poughkeepsie,NY,12603,Bob Legacy,9144747533,http://www.arlingtonhasit.org,Thursday  3pm-7pm,June 2-October 27,Y,M,41.68187,-73.89636,N,N,Y,"(41.68187, -73.89636)"
Dutchess,Beacon Farmers' Market,Beacon Ferry Dock 55 Red Flynn Rd.,55 Red Flynn Dr,Beacon,NY,12508,Sarah Simon,6175387577,,Sunday  10am-2pm,April 24-November 20,Y,P/M,41.50576,-73.9854,Y,Y,Y,"(41.50576, -73.9854)"
Dutchess,Beacon WINTER Farmers' Market,413 Main St.,413 Main Street,Beacon,NY,12508,Sarah Simon,6175387577,,Sunday  10am-2pm,December 4-April 16,N,X/W/P,41.50321,-73.96674,N,N,Y,"(41.50321, -73.96674)"
Dutchess,Dykeman Farm Farm Stand,31 Dykeman Lane Pawling,31 Dykeman Lane,Pawling,NY,12564,Beth Dykeman,8458326086,http://www.bestcorn.com,Daily  10am-6pm,July 1-November 1,Y,M,41.62739,-73.60795,N,N,Y,"(41.62739, -73.60795)"
Dutchess,Hyde Park Farmers' Market,Near Town Hall 4390 Rt 9,4390 Route 9,Hyde Park,NY,12538,Dot Chenevert,8452299336,http://www.hydeparkfarmersmarket.org,Saturday  9am-2pm,June 4-October 29,Y,M,41.7913,-73.93615,N,N,Y,"(41.7913, -73.93615)"
Dutchess,Millbrook Farmers' Market,Front St. & Franklin Ave. (Bank lot),Front St. and Franklin Ave.,Millbrook,NY,12545,Ian Daly,8452434410,http://www.millbrooknyfarmersmarket.com/,Saturday  9am - 1pm,May 28-October 29,N,P/M,41.78321,-73.69651,N,N,Y,"(41.78321, -73.69651)"
Dutchess,Millerton Farmers' Market,6 Dutchess Ave.,6 Dutchess Ave.,Millerton,NY,12546,Sheila DePaola,5187894259,http://www.millertonfarmersmarket.org/,Saturday 10am-2pm,Year-round,Y,YR,41.95424,-73.50979,N,Y,Y,"(41.95424, -73.50979)"
Dutchess,Pawling Farmers' Market,Pawling Village Green Charles Colman Blvd.,154 Charles Colman Blvd.,Pawling,NY,12564,Terry Deegan,9172244801,http://www.pawlingfarmersmarket.org,Saturday  9am-1pm,June 18-October 1,Y,M,41.56315,-73.60143,N,N,Y,"(41.56315, -73.60143)"
Dutchess,Poughkeepsie Plenty Fresh Interfaith Towers,66 Washington St.,66 Washington Street,Poughkeepsie,NY,12601,Cloud Bartoli,8454543792,http://www.dutchessoutreach.org/ppm,Thursday  11:30am-1pm,June 9-October 20,N,M,41.70773,-73.92935,N,Y,Y,"(41.70773, -73.92935)"
Dutchess,Poughkeepsie Plenty Fresh Maplewood,457 Maple St.,457 Maple St.,Poughkeepsie,ny,12601,Cloud Bartoli,8454543792,http://www.dutchessoutreach.org/ppm,Wednesday  2pm-3pm,June 8-October 19,Y,M,41.70012,-73.91199,N,N,Y,"(41.70012, -73.91199)"
Dutchess,Poughkeepsie Plenty Fresh Market,29 N Hamilton Street  Family Partnership Center,29 N Hamilton Street,Poughkeepsie,NY,12601,Cloud Bartoli,8454543792,http://www.dutchessoutreach.org/ppm,Wednesday  11:30am-1pm,June 8-October 19,Y,M,41.70459,-73.92197,N,N,Y,"(41.70459, -73.92197)"
Dutchess,Poughkeepsie Plenty Fresh Soldier's Fountain,Little Market and Montgomery st,Little Market and Montgomery st,Poughkeepsie,NY,12601,Cloud Bartoli,8454543792,http://www.dutchessoutreach.org/ppm,Thursday  2pm-3:30pm,June 9-October 20,Y,M,41.6995,-73.93151,N,N,Y,"(41.6995, -73.93151)"
Dutchess,Rhinebeck Farmers' Market,Municipal lot 61 E. Market St.,61 East Market St,Rhinebeck,NY,12572,Andrea Bartolomeo,5188211481,http://www.rhinebeckfarmersmarket.com,Sunday  10am-2pm,May 8-November 20,Y,P/M,41.92738,-73.91021,Y,Y,Y,"(41.92738, -73.91021)"
Dutchess,Rhinebeck WINTER Farmers' Market,Town Hall 80 E. Market St,80 E. Market St,Rhinebeck,NY,12572,Andrea Bartolomeo,5188211481,http://www.rhinebeckfarmersmarket.com,Alt. Sundays  10am-2pm,December 4-April 23,Y,X/W/P,41.926894,-73.908946,Y,Y,Y,"(41.926894, -73.908946)"
Dutchess,Share the Bounty Farm Stand,Hudson River Healthcare 3360 Route 343 Amenia,3360 Route 343,Amenia,NY,12501,Edward Frederick,8458387038,,Tuesday  9am-4pm,June 7-November 1,Y,M,41.85035,-73.55065,N,Y,Y,"(41.85035, -73.55065)"
Dutchess,Village of Fishkill Farmers' Market,Old Grand Union lot 1004 Main St. Rt. 52,1004 Main St,Fishkill,NY,12524,Julie Spann,9144565120,http://www.vofishkill.us,Thursday  9am-3pm,May 26-October 27,Y,P/M,41.53212,-73.90574,N,N,Y,"(41.53212, -73.90574)"
Erie,5 Loaves Farm Stand,1172 West Ave. Buffalo,1172 West Ave,Buffalo,NY,14213,Matt Kauffman,7168039241,http://5loavesfarm.blogspot.com,Saturday  10am-1pm,May 7-October 30,Y,P/M,42.9222,-78.8965,N,Y,Y,"(42.9222, -78.8965)"
Erie,Alden Farmers' Market,"13119 Broadway (Route 20) , btwn Tractor Supply & Save a Lot",13119 Broadway,Alden,NY,14004,Jenny Urbanski,7169376177,http://www.aldenny.org,Saturday  8:30am-1pm,May 14-October 15,Y,P/M,42.89784,-78.49904,N,N,Y,"(42.89784, -78.49904)"
Erie,Blasdell Farmers' Market,4271 Lake Ave,4271 Lake Ave,Hamburg,NY,14219,Jamie Decker,7166497917,http://www.hamburg-chamber.org,Wednesday  9am-2pm,May 18-September 28,Y,P/M,42.79704,-78.81905,N,N,Y,"(42.79704, -78.81905)"
Erie,Bowman Farms Farm stand,11259 Gowanda State Rd. North Collins,11259 Gowanda State Rd.,North Collins,NY,14111,Bruce Bowman,7168185222,http://www.bowmanfarmsinc.com,Daily  9am-5:30pm,June-October,Y,M,42.574596,-78.93425,N,Y,Y,"(42.574596, -78.93425)"
Erie,Broadway Farmers' Market,999 Broadway Buffalo parking entrances on Gibson or Lombard St.,999 Broadway,Buffalo,NY,14212,Kathleen Peterson,7168930705,https://www.facebook.com/BroadwayMarketBuffalo?ref=hl,Mon-Sat  8am-5pm,May 4-December 24,N,P/M/X,42.893162,-78.837667,N,N,Y,"(42.893162, -78.837667)"
Erie,Clarence Hollow Farmers' Market,Town parking lot 10717 Main St. (Rt. 5),10717 Main St,Clarence,NY,14031,Cheryl Anthony,7167591075,http://www.clarencefarmersmarket.com,Saturday  8am-1pm,June 4-October 29,Y,M,42.9808,-78.58904,N,N,Y,"(42.9808, -78.58904)"
Erie,Clinton Bailey Farmers' Market,"1443-1517 Clinton St. Buffalo, corner of Clinton & Bailey Sts., (FMNP Saturdays Only)",Bailey Ave and Clinton St,Buffalo,NY,14206,Sharon Baldi,7162080003,http://www.clintonbaileymarket.com,"Sat 6am-6pm  , (Sat Nov-April 6am-1pm) , Sun 7am-2pm , Mon-Fri  7am-5pm",Year-round,Y,YR,42.87205,-78.81998,N,Y,Y,"(42.87205, -78.81998)"
Erie,Common Roots Urban Farm Stand,309 Peckham St Buffalo,309 Peckham St,Buffalo,NY,14206,Terra Dumas,7162829109,,Saturday 10am-1pm,June 11-September 24,Y,M,42.88783,-78.84284,N,N,Y,"(42.88783, -78.84284)"
Erie,Downtown Buffalo Country Market,Buffalo Place Main St. btwn Court & Church Streets,344 Main Street,Buffalo,NY,14202,Erin Carmina,7168563150,http://www.buffaloplace.com,Tue/Thu  8am-2:30pm,May 12-October 27,Y,P/M,42.88418,-78.87491,N,Y,Y,"(42.88418, -78.87491)"
Erie,East Aurora Farmers' Market,Aurora Village (TOPS) Plaza 123 Grey St.,123 Grey St,East Aurora,NY,14052,Barbara Andres-Kester,7163482801,http://facebook.com/EastAuroraFarmersMarket,Sat/Wed  7am-1pm,May 7-November 23,Y,P/M,42.76593,-78.63413,N,N,Y,"(42.76593, -78.63413)"
Erie,Elmwood Village Farmers' Market,Elmwood Village at Elmwood Ave & Bidwell Pkwy,Elmwood Ave and Bidwell Pkwy,Buffalo,NY,14222,Karen Vilonen,7166915388,http://www.elmwoodmarket.org,Saturday  8am-1pm,May 7-November 26,Y,P/M,42.92371,-78.87702,N,Y,Y,"(42.92371, -78.87702)"
Erie,Elmwood Village WINTER Market,Elmwood Ave.  SUNY Buffalo,Elmwood Ave.,Buffalo,NY,14213,Karen Vilonen,7166915388,http://www.elmwoodmarket.org,Saturday  10am-2pm,December 5-April 29,N,X/W/P,42.95691,-78.87836,N,Y,Y,"(42.95691, -78.87836)"
Erie,Farm 2 Preschool Kenmore Ave Farmers' Market,500 Kenmore Ave. Buffalo,500 Kenmore Ave,Buffalo,NY,14223,Darla Ferrante,5856544745,,Tuesday  3pm-6pm,June 7-October 11,Y,M,42.95796,-78.83643,Y,Y,Y,"(42.95796, -78.83643)"
Erie,Grider Street Farmers' Market,351 Grider St. Buffalo,351 Grider St,Buffalo,NY,14215,Kelly Showard,7168984737,,Friday  10am-2pm,June 3-September 30,Y,M,42.924297,-78.828694,N,Y,Y,"(42.924297, -78.828694)"
Erie,Hamburg Farmers' Market,"Village municipal parking lot Main & Buffalo Sts. , (entrance on Main & Union Sts)",30 Buffalo St,Hamburg,NY,14075,Jamie Decker,7166497917,http://www.hamburg-chamber.org,Saturday  7:30am-1pm,May 7-October 29,Y,P/M,42.71677,-78.82994,N,N,Y,"(42.71677, -78.82994)"
Erie,Holland Farmers' Market,Municipal lot Route 16 Next to Fire Hall,25 North Main St,Holland,NY,14080,Marg Wnek,7165379590,http://www.thehollandmkt.com,Sunday  8:30am-1pm,May 1-October 30,Y,P/M,42.64149,-78.54248,N,N,Y,"(42.64149, -78.54248)"
Erie,Kenmore Farmers' Market,2919 Delaware Ave. at Delaware Rd.,2919 Delaware Ave,Buffalo,NY,14217,Patrick Mang,7168764118,https://www.facebook.com/pages/Kenmore-Farmers-Market/132985793616,Saturday  8am-12:30pm,June 18-October 29,Y,M,42.96362,-78.8698,N,N,Y,"(42.96362, -78.8698)"
Erie,Lancaster Sunday Farmers' Market,4913 Transit Rd.,4913 Transit Rd.,Buffalo,NY,14221,Ann Jordan,7164812961,http://www.lancastervillagemarket.com,Sunday  9am-2pm,May 1-Octobter 30,Y,P/M,42.98538,-78.69692,N,Y,Y,"(42.98538, -78.69692)"
Erie,MAP ELIM Mobile Market,"Parking lot 70 Chalmers Ave. Buffalo, btw Holden St & Filmore Ave.",70 Chalmers Avenue,Buffalo,NY,14214,Danielle Rovillo,7168825327,http://www.mass-ave.org,Thursday  4pm-6pm,June 9-October 27,Y,M,42.93819,-78.8358,N,Y,Y,"(42.93819, -78.8358)"
Erie,MAP Farm Stand,389 Massachusetts Ave. Buffalo,389 Massachusetts Ave.,Buffalo,NY,14213,Danielle Rovillo,7168825327,http://www.mass-ave.org,Tuesday  4pm-6pm,June 7-October 25,Y,M,42.9128,-78.88774,N,Y,Y,"(42.9128, -78.88774)"
Erie,MAP Gerard Place Mobile Market,Front lawn 2515 Bailey Ave. at E. Delavan Buffalo,2515 Bailey Ave,Buffalo,NY,14215,Danielle Rovillo,7168825327,http://www.mass-ave.org,Wednesday  11am-1pm,June 8-October 26,Y,M,42.92323,-78.81325,N,Y,Y,"(42.92323, -78.81325)"
Erie,MAP Mulberry Street Block Club,"Moot Community Center Parking lot, 292 High Street Buffalo",292 High Street,Buffalo,NY,14204,Danielle Rovillo,7168825327,http://www.mass-ave.org,Thursday 11am-1pm,June 9-October 27,Y,M,42.90029,-78.85812,N,Y,Y,"(42.90029, -78.85812)"
Erie,MAP Salvation Army Mobile Market,Parking lot 960 Main St. at High St. Buffalo,960 Main Street,Buffalo,NY,14202,Danielle Rovillo,7168825327,http://www.mass-ave.org,Friday  11am-1pm,June 10-October 28,Y,M,42.90008,-78.87024,N,Y,Y,"(42.90008, -78.87024)"
Erie,MAP West Side Community Service,"Parking lot 161 Vermont St Buffalo, btw Fargo & West Aves.",161 Vermont St,Buffalo,NY,14213,Danielle Rovillo,7168825327,http://www.mass-ave.org,"Monthly, first Wed , 4pm-6pm","July 6, Aug 3, Sept 7, Oct 5",Y,M,42.90547,-78.89222,N,Y,Y,"(42.90547, -78.89222)"
Erie,North Buffalo Farmers' Market,85 Dakota St. Buffalo,85 Dakota St.,Buffalo,NY,14216,Patricia Banning,7168866635,http://www.northbuffalo.org,Thursday  3pm-7pm,June 2-October 27,Y,M,42.94668,-78.86602,N,Y,Y,"(42.94668, -78.86602)"
Herkimer,Mohawk Farmers' Market,Weller Park 41 W Main St.,41 West Main St,Mohawk,NY,13407,Marilyn Bridger,3158661671,,Wednesday  2pm-5pm,June 1-October 5,Y,M,43.01075,-75.00846,N,N,Y,"(43.01075, -75.00846)"
Erie,Orchard Park at Fox Run Farmers' Market,Orchard Park One Fox Run Lane,One Fox Run Lane,Orchard Park,NY,14127,Michelle Bermingham,7166625001,https://www.facebook.com/pages/Orchard-Park-Farmers-Market-at-Fox-Run/199492926762050,Thursday  9am-1:30pm,May 26-October 27,Y,P/M,42.76345,-78.77619,N,N,Y,"(42.76345, -78.77619)"
Erie,Seneca Nation Farmers' Market,"11150 US-20 (Routes 5 & 20) Irving, Seneca OneStop Gas Station",11150 US-20,Irving,NY,14081,Azalia Garlow,7169037066,http://www.foodisourmedicine.org,Tuesday  10am-3pm,May 17-October 18,Y,P/M,42.57931,-79.07662,N,N,Y,"(42.57931, -79.07662)"
Erie,Springville Farmers' Market,Gentner Auction 341 W. Main St. (Rt. 39),341 West Main St,Springville,NY,14141,Donna Goldhawk,7165600198,,Wednesday  7am-3pm,Year-round,Y,YR,42.50906,-78.67989,N,N,Y,"(42.50906, -78.67989)"
Erie,Uptown Fresh Healthy Lifestyles Market,3248 Bailey Ave. (next to fire station) Buffalo,3248 Bailey Ave.,Buffalo,NY,14215,Prennessia Salder-Lambert,7168483430,http://www.buffalopromiseneighborhood.org,Saturday  10am-2pm,June 25-September 24,Y,M,42.94321,-78.8137,N,Y,Y,"(42.94321, -78.8137)"
Erie,Westside Farm Stand,251 Vermont St. Buffalo,251 Vermont St.,Buffalo,NY,14213,Carrie Nader,7168833182,https://www.facebook.com/westsideherbsandalliums,Friday  5pm-7pm,May 20-November 18,Y,P/M,42.90728,-78.88948,N,N,Y,"(42.90728, -78.88948)"
Erie,Williamsville Mill Farmers' Market,"Island Park , 5565 Main St. Williamsville",5565 Main St.,Williamsville,NY,14221,Ellie Grenauer,7169846572,http://www.williamsvillefarmersmarket.com,Saturday  8am-1pm,May 14-October 29,Y,P/M,42.962438,-78.745756,N,N,Y,"(42.962438, -78.745756)"
Essex,Drinkwine Produce Farm Stand,Route 9N & 22nd Streetroad Ticonderoga,Route 9N,Ticonderoga,NY,12883,Henry Drinkwine,5185856346,,Daily  10am-6pm,June 1-October 31,Y,M,43.86062,-73.44656,N,N,Y,"(43.86062, -73.44656)"
Essex,Elizabethtown Farmers' Market,Behind Adirondack Center Museum,7590 Court St,Elizabethtown,NY,12932,Vicky Rayl,5186517680,http://www.adirondackfarmersmarket.com,Friday  9am-1pm,June 3-September 16,Y,M,44.21505,-73.59094,N,N,Y,"(44.21505, -73.59094)"
Essex,Keene Farmers' Market,Rt. 73 Marcy Airfield 1 mi South of Rt. 9N jct.,2253 State Route 73,Keene Valley,NY,12943,Vicky Rayl,5186517680,http://www.adirondackfarmersmarket.com,Sunday  9:30am-2pm,June 19-October 9,Y,M,44.22067,-73.78561,N,N,Y,"(44.22067, -73.78561)"
Essex,Lake Placid Farmers' Market,Saint Agnes School parking lot,2322 Saranac Ave,Lake Placid,NY,12946,Gail Brill,5185861063,http://www.ausablevalleygrangefarmersmarkets.com/,Wednesday  9am-1pm,June 1-October 19,Y,M,44.2925,-73.98829,N,N,Y,"(44.2925, -73.98829)"
Essex,Rivermede Farm Market,"1925 Route 73, Keene Valley",1925 Route 73,Keene Valley,NY,12943,Robert Hastings,5185764686,http://www.rivermedefarm.com,"Daily  9am-5pm  , May-Dec  daily, Jan-May  closed Wed/Thu",Year-round,N,YR,44.19937,-73.7865,N,N,Y,"(44.19937, -73.7865)"
Essex,Schroon Lake Farmers' Market,Town Hall parking lot 15 Leland Ave,15 Leland Ave,Schroon Lake,NY,12870,Gail Brill,5185861063,http://www.ausablevalleygrangefarmersmarkets.com/,Monday  9am-1pm,June 27-August 29,Y,M,43.83666,-73.76049,N,N,Y,"(43.83666, -73.76049)"
Essex,Ticonderoga Farmers' Market,1114 Wicker Street near Walmart entrance,1114 Wicker Street,Ticonderoga,NY,12883,Mathew Courtright,5185856619,https://www.facebook.com/TiAreaFarmersMarket,Saturday  10am-1pm,July 2-October 29,Y,M,43.85688,-73.43642,N,N,Y,"(43.85688, -73.43642)"
Essex,Willsboro Farmers' Market,Route 22 South of Champlain National Bank,3900 NY Rt 22,Willsboro,NY,12996,Vicky Rayl,5186517680,http://www.adirondackfarmersmarket.com,Thursday  9am-1pm,June 16-September 8,Y,M,44.36971,-73.395629,N,N,Y,"(44.36971, -73.395629)"
Franklin,Chateaugay Lake Farmers' Market,Route 374 Hollywood Inn,4939 State Route 374,Merrill,NY,12955,Vicky Rayl,5186517680,http://www.adirondackfarmersmarket.com,Saturday  9am-1pm,June 18-September 3,Y,M,44.78327,-73.98388,N,N,Y,"(44.78327, -73.98388)"
Franklin,JCEO  Route 11 Garden Stand,"3400 State Route 11, Malone",3400 State Route 11,Malone,NY,12953,Richard LaVigne,5183194028,http://www.jceo.org,"Mon-Fri  10am-6pm, Saturday 10am-4pm",June 27-September 3,Y,M,44.8476,-74.31148,N,N,Y,"(44.8476, -74.31148)"
Franklin,JCEO Route 51 Garden Stand,"394 County Rt 51 (Creighton Rd.), Malone",394 County Highway 51,Malone,NY,12953,Richard LaVigne,5183194028,http://www.jceo.org,"Mon-Fri  10am-6pm, Saturday 10am-4pm",June 27-September 3,Y,M,44.8572,-74.33951,N,N,Y,"(44.8572, -74.33951)"
Franklin,Malone Farmers' Market,Malone Airport Rt. 11 opposite Wal-Mart,Airport Road and US 11,Malone,NY,12953,Vicky Rayl,5186517680,http://www.adirondackfarmersmarket.com,Wed  12pm-4:30pm,June 15-October 12,Y,M,44.84733,-74.32773,N,Y,Y,"(44.84733, -74.32773)"
Franklin,Saranac Green Market,"Town Green Route 3 near High School, McCutcheon Lane and Chazy Lake Rd.",McCutcheon Lane and Chazy Lake Road,Saranac,NY,12981,Joe Orefice,5182931380,http://www.saranacgreenmarket.com/,Sundays 10am-1pm,July 3-September 11,N,M,44.66116,-73.73588,N,N,Y,"(44.66116, -73.73588)"
Franklin,Saranac Lake Farmers' Market,Lake Flour Bakery 23 River St.,23 River Street,Saranac Lake,NY,12983,Vicky Rayl,5186517680,http://www.adirondackfarmersmarket.com,Tuesday  10am-2pm,May 10-September 27,Y,P/M,44.3248,-74.13056,N,N,Y,"(44.3248, -74.13056)"
Franklin,Saranac Lake Village Farmers' Market,Riverside Park  Corner of Main St. & Route 3,Main St and Route 3,Saranac Lake,NY,12983,Gail Brill,5185861063,http://www.ausablevalleygrangefarmersmarkets.com/,Saturday  9am-2pm,June 4-October 8,Y,M,44.32503,-74.13178,N,N,Y,"(44.32503, -74.13178)"
Franklin,Saranac Lake WINTER Farmers' Market,421 Lake Flower Ave.,421 Lake Flower Ave.,Saranac Lake,NY,12983,Ian Ater,5188345012,http://www.ausablevalleygrangefarmersmarkets.com/,Saturday  10am-2pm,October 29-December 17,N,M/X,44.31646,-74.12123,N,N,Y,"(44.31646, -74.12123)"
Franklin,Tupper Lake Farmers' Market,Wild Center Museum 46 Museum Dr,46 Museum Dr,Tupper Lake,NY,12986,Vicky Rayl,5186517680,http://www.adirondackfarmersmarket.com,Thursday  10am-2pm,June 9-September 22,Y,M,44.21956,-74.43693,N,Y,Y,"(44.21956, -74.43693)"
Fulton,Gloversville Farmers' Market,"Elm Street Pavilion, btwn Church & Spring Sts.",9 Elm Street,Gloversville,NY,12078,Michael Tillson,5188829306,http://www.fmfma.org,Sat  8:30am-12:30pm,May 7-October 15,Y,P/M,43.052604,-74.345796,N,Y,Y,"(43.052604, -74.345796)"
Fulton,Johnstown Farmers' Market,City Park W Main St.,Main and William,Johnstown,NY,12095,Michael Tillson,5188829306,http://www.fmfma.org,Tuesday  3pm-6pm,June 14-October 18,Y,M,43.00636,-74.37421,N,Y,Y,"(43.00636, -74.37421)"
Fulton,Northville Farmers' Market,"Waterfront Park, S. Main St., behind Timeless Tavern",162 South Main St,Northville,NY,12134,Wendy Reu,5188634211,http://www.villageofnorthville.com/events/,Fri  2pm-5pm,May 27-October 9,N,P/M,43.22568,-74.17102,N,N,Y,"(43.22568, -74.17102)"
Genesee,Curbside Market - 400 Towers,400 East Main St. Batavia,400 East Main St.,Batavia,NY,14020,Mitch Gruber,5853283380,,Monday 11am-11:40am,July-November,Y,M,42.99659,-78.17634,N,Y,Y,"(42.99659, -78.17634)"
Genesee,Curbside Market-Gillam Grant Comm Ctr,6966 W. Bergen Rd. Bergen,6966 W Bergen Road,Bergen,NY,14416,Mitch Gruber,5853283380,http://www.foodlinkny.org,Monday  10am-10:30am,July-November,Y,M,43.0771,-78.00657,N,Y,Y,"(43.0771, -78.00657)"
Genesee,Genesee Country Farmers' Market,Downtown Batavia Market Bank St. & Alva Place,Bank St and Alva Place,Batavia,NY,14020,Michael Bakos,7168664958,,Tue/Thu/Fri  9am-5pm,June 10-October 28,Y,M,42.99905,-78.18151,Y,Y,Y,"(42.99905, -78.18151)"
Genesee,Leon Halat Jr Farm Stand,8282 Park Rd. Batavia,8282 Park Rd.,Batavia,NY,14020,Leon Halat Jr,7164744573,,Tue-Sat  9:30am-5pm,June 10-December 23,Y,M/X,43.01245,-78.2021,N,N,Y,"(43.01245, -78.2021)"
Genesee,LeRoy Farmers' Market,Trigon Park Route 5 (Main St.),Trigon Park,Le Roy,NY,14482,Sharon Jeary,5857682527,http://www.villageofleroy.org,Saturday  9am-12:30pm,June 25-October 15,Y,M,42.97756,-77.98592,N,N,Y,"(42.97756, -77.98592)"
Greene,Black Horse Farms Farm Stand,10094 Rt. 9W,10094 Rte 9W,Athens,NY,12015,Chellie Apa,5187318776,http://www.blackhorsefarms.com,"Daily  8am-6pm, closed Dec 25-Mar 26, 9am-5pm",Year-round,Y,YR,42.30634,-73.85043,N,Y,Y,"(42.30634, -73.85043)"
Greene,Bulich Creekside Farm Farm Stand,1682 Route 23B,1682 Route 23B,Leeds,NY,12451,Ron Bulich,5182912449,,"Mon-Fri  12pm-6pm, Sat/Sun 10am-6pm",May 10-October 31,Y,P/M,42.26297,-73.92541,N,N,Y,"(42.26297, -73.92541)"
Greene,Catskill Farmers' Market,344 Main St. Catskill,344 Main St.,Catskill,NY,12414,Rebecca Van Alstyne,5187198244,http://www.catskillcommunitycenter.org,Friday  4pm-7pm,June 3-October 14,Y,M,42.21821,-73.86507,N,N,Y,"(42.21821, -73.86507)"
Greene,Coxsackie Farmers' Market,Coxsackie Boat Launch 1 Betke Blvd,1 Betke Boulevard,Coxsackie,NY,12051,Kimberly Bender,5183303008,http://www.coxsackiefarmersmarket.org,Wednesday  4pm-7pm,May 18-September 28,Y,P/M,42.3525,-73.79622,N,N,Y,"(42.3525, -73.79622)"
Hamilton,Indian Lake Community Farmers' Market,Parking lot at the intersection of Routes 28 & 30 Indian Lake,Route 28 and Route 30,Indian Lake,NY,12842,Brenda Valentine,5186485636,,Saturday  10am-2pm,July 2-September 24,N,M,43.78247,-74.26541,N,N,Y,"(43.78247, -74.26541)"
Hamilton,Speculator Farmers & Crafters Farmers' Market,Speculator Village Pavilion,State Route 30 and Elliot Ln,Speculator,NY,12164,Donna Benkovich,5185484521,http://www.speculatorchamber.com,Thursday  2pm-5pm,June 23-September 15,Y,M,43.49679,-74.36073,N,N,Y,"(43.49679, -74.36073)"
Herkimer,Dolgeville Farmers' Market,Municipal Parking Lot between Main and Helmer,55 North Main Street,Dolgeville,NY,13329,Joseph Jablonski,3157177710,http://farmersmarketherkimerhealthnet.com/dolgeville,Saturday  9am-1pm,May 21-October 29,Y,P/M,43.10413,-74.77077,N,N,Y,"(43.10413, -74.77077)"
Herkimer,Dolgeville WINTER Farmers'  Market,78 South Main Street Askarada Place,78 South Main Street,Dolgeville,NY,13329,Dean Foreman,5187289602,,1st and 3rd Sats  9am-1pm,November 19-April 15,N,M/X/W/P,43.09993,-74.77387,N,N,Y,"(43.09993, -74.77387)"
Herkimer,Ilion Farmers' Market,"Clapsaddle Farm heated barns  , 437 Otsego St. (State Rt 51 S)",437 Otsego St,Ilion,NY,13357,James Parker,3158944660,http://farmmarket.herkimerhealthnet.com/ilion.html,"Friday  12pm-6pm, Saturday  10am-5pm",Year-round,Y,YR,43.00028,-75.04423,N,Y,Y,"(43.00028, -75.04423)"
Herkimer,Little Falls Farmers' & Flea Market,"M&T Bank parking lot, Albany St.",Albany Street and 2nd Street,Little Falls,NY,13365,Mary Davis,3158662619,,Saturday  8am-1pm,May 7-November 19,Y,P/M,43.04284,-74.85828,N,N,Y,"(43.04284, -74.85828)"
Herkimer,Little Falls WINTER Farmers Market,Travelodge 20 Albany St.,20 Albany St.,Little Falls,NY,13365,Michael Skwara,3159850088,,2nd & 4th Sat  9am-1pm,November-April,N,M/X/W/P,43.042006,-74.859812,N,N,Y,"(43.042006, -74.859812)"
Herkimer,MAWS Farm Stand,"7342 Main Street , Newport",7342 Main Street,Newport,NY,13416,Michael Skwara,3159850088,http://www.mawsfarm.com,"Mon-Sat  10am-6pm, Sunday  12pm-6pm, Hours change Nov 1",Year-round,Y,YR,43.18096,-75.01054,N,Y,Y,"(43.18096, -75.01054)"
Herkimer,Old Forge Farmers' Market,Park Ave Lamberion st behind Old Forge Hardware,Crosby Blvd and Park Ave,Old Forge,NY,13420,Nicholas Rose,3153693353,http://www.cap-21.org,Friday  1pm-5pm,June 24-October 7,Y,M,43.70893,-74.97286,N,Y,Y,"(43.70893, -74.97286)"
Herkimer,Salisbury Farmers' Market,Town Hall Parking Lot 126 State Route 29A,126 State Route 29A,Salisbury Center,NY,13329,Gina Thompson,3154299102,,Friday  9am-1pm,May 27-October 14,Y,P/M,43.14304,-74.78544,N,N,Y,"(43.14304, -74.78544)"
Jefferson,Alexandria Bay Farmers' Market,Kinney Drugs Route 12,21 Route 12,Alexandria Bay,NY,13607,Keri Jobson,3154829531,http://www.visitalexbay.org,Friday  9am-3pm,May 20-September 16,N,P/M,44.33191,-75.91425,N,N,Y,"(44.33191, -75.91425)"
Jefferson,Black River Farmers' Market,"Sally Ploof Hunter Library, 101 Public Works Drive Black River",101 Public Works Drive,Black River,NY,13612,Shawn Hunt,3157735163,,Tuesday  11am-6pm,June 21-September 13,Y,M,44.01594,-75.78625,N,N,Y,"(44.01594, -75.78625)"
Jefferson,Bushgardens Farm Stand,"10371 NYS Route 26, Carthage",10371 NYS Route 26,Carthage,NY,13619,Loren Bush,3157836745,,"M/T/Th/Sat/Sun  6a-9p, Wed/Fri  3pm-8pm",May 15-November 1,Y,P/M,43.91954,-75.58686,N,Y,Y,"(43.91954, -75.58686)"
Jefferson,Cape Vincent Farmers' Market,Village Green Gouvello St.,Broadway St and James St,Cape Vincent,NY,13618,Shelley Higgins,3156542481,http://www.capevincent.org,Saturday  10am-4pm,June 18-October 8,Y,M,44.12838,-76.33472,N,N,Y,"(44.12838, -76.33472)"
Jefferson,Carthage Farmers' Market,"Farmers Market Pavilion , 150 Riverside Dr. (behind Carthage Rescue Squad)",215 Spring St,Carthage,NY,13619,Lori Boland,3154933590,http://www.carthageny.com,Friday  7am-2pm,May 27-October 28,Y,P/M,43.97798,-75.61225,N,N,Y,"(43.97798, -75.61225)"
Jefferson,Clayton Chamber of Commerce Farmers' Market,Village Park Circle,615 East Line Road,Clayton,NY,13624,Tricia Bannister,3156863771,http://www.1000island-clayton.com,Thursday  11am-5pm,June 2-October 15,Y,M,44.2298,-76.07713,N,N,Y,"(44.2298, -76.07713)"
Jefferson,Little m Farm,16611 County Route 64 Watertown,16611 County Rd 64,Watertown,NY,13601,Gail Millard,3154089752,,Tue-Sun  9am-6pm,April 30-November 20,N,P/M,43.90772,-75.97562,N,Y,Y,"(43.90772, -75.97562)"
Jefferson,MDC Show & Market Hogs Farm Stand,"39449 County Rd. 24, Antwerp",39449 County Rd. 24,Antwert,NY,13608,Gerard Marshall,3152211193,,"Mon-Sat  9am-9pm, Sunday  10am-6pm",May 15-November 1,Y,P/M,44.23889,-75.6159,N,N,Y,"(44.23889, -75.6159)"
Jefferson,The Cheese Store Farmers' Market,"19401 NYS Rt. 3 Outer Arsenal St., Jefferson Bulk Milk Co-op Watertown",19401 NYS Route 3,Watertown,NY,13601,Brian Gorman,3157885257,http://www.jeffersonbulkmilk.com,Friday  2:30pm-6:30pm,May 27-October 7,Y,P/M,43.96978,-75.98608,N,N,Y,"(43.96978, -75.98608)"
Jefferson,Tickle the Earth Farm Stand,13501 County Route 155,13501 County Route 155,Adams Center,NY,13606,Almeda Grandjean,3155835660,,Daily  11am-5pm,May -October,N,P/M,43.88524,-75.94957,N,Y,Y,"(43.88524, -75.94957)"
Jefferson,Watertown Farm & Craft Market,317 Washington St. Dulles State Office Bldg.,317 Washington Street,Watertown,NY,13601,Kylie Peck,,http://www.watertownny.com,Wed  6:30am-3:30pm,May 25-October 5,Y,P/M,43.97173,-75.91116,Y,Y,Y,"(43.97173, -75.91116)"
Jefferson,Watertown Saturday Farmers' Market,Pavilion at J.B. Wise 175 Black River Pkway,175 Black River Parkway,Watertown,NY,13601,Kathleen Mereand,3157829339,https://www.facebook.com/Watertown-Saturday-Farmers-Market-106662177762/,Saturday  9am-2pm,June 4-October 15,Y,M,43.97651,-75.90988,N,Y,Y,"(43.97651, -75.90988)"
Jefferson,Windswept Meadows Farm Stand,17025 Cty Rt 68 Watertown,17025 County Road 68,Watertown,NY,13601,Delta Keeney,3157881933,http://www.keeneyswindsweptmeadowsfarm.com,Daily  7am-9pm,July 1-Oct 31,Y,M,43.91784,-75.87206,N,Y,Y,"(43.91784, -75.87206)"
Kings,Bartel-Pritchard Square Greenmarket,"Prospect Park West at 15th St. , Inside park entrance",Prospect Park West and 14th Street,Brooklyn,NY,11215,Chelsea Whittaker,2127887476,http://www.grownyc.org/greenmarket,Wed/Sun  8am-3pm,Year-round,Y,YR,40.66094,-73.97979,N,Y,Y,"(40.66094, -73.97979)"
Kings,Bay Ridge Greenmarket,3rd Ave. & 95th St. inside Walgreen's parking lot,Third Ave and 95th St,Brooklyn,NY,11209,Chelsea Whittaker,2127887476,http://www.grownyc.org/greenmarket,Saturday  8am-3pm,May 7-November 19,Y,P/M,40.61724,-74.03362,N,Y,Y,"(40.61724, -74.03362)"
Kings,Bensonhurst Greenmarket,18th Ave. btwn 81st & 82nd Sts.,8100 18th Ave,Brooklyn,NY,11214,Chelsea Whittaker,2127887476,http://www.grownyc.org/greenmarket,Sunday  9am-4pm,June 5-November 20,Y,M,40.60958,-73.99944,N,Y,Y,"(40.60958, -73.99944)"
Kings,Boro Park Greenmarket,14th Ave. btwn 49th & 50th Sts.,14th Ave and 49th St,Brooklyn,NY,11219,Chelsea Whittaker,2127887476,http://www.grownyc.org/greenmarket,Thursday  8am-3pm,July 7-November 17,Y,M,40.6337,-73.98992,N,Y,Y,"(40.6337, -73.98992)"
Kings,Brooklyn Borough Hall Greenmarket,Court & Montague Sts. Supreme Court Plaza,Court St and Montague St,Brooklyn,NY,11201,Chelsea Whittaker,2127887476,http://www.grownyc.org/greenmarket,Tue/Thu/Sat  8am-5pm,Year-round,Y,YR,40.69375,-73.99047,N,Y,Y,"(40.69375, -73.99047)"
Kings,Brownsville Pitkin Youthmarket,Pitkin Ave. Between Thomas Boyland & Amboy Streets,Pitkin Ave. between Thomas Boyland and Amboy Streets,Brooklyn,NY,11212,Kori Petrovic,2127887476,http://www.grownyc.org/youthmarket,Saturday 10am-3pm,July 9-November 19,Y,M,40.69245,-73.99036,N,Y,Y,"(40.69245, -73.99036)"
Kings,Brownsville Rockaway Youthmarket,Rockaway Ave btwn Livonia & Dumont Aves.,Rockaway Ave and Livonia Ave,Brooklyn,NY,11212,Kori Petrovic,2127887476,http://www.grownyc.org/youthmarket,Friday  12pm-5pm,July 8-November 18,Y,M,40.66255,-73.90895,N,Y,Y,"(40.66255, -73.90895)"
Kings,Bushwick Broadway Farmers' Market,Broadway and Boyland St.,Broadway and Thomas S Boyland Street,Brooklyn,NY,11385,Sean-Michael Fleming,6463939305,http://www.bushwickfarmersmarket.org,Thursday  9am-3pm,June 30-November 17,Y,M,40.6853,-73.91473,N,Y,Y,"(40.6853, -73.91473)"
Kings,Bushwick Maria Hernandez Farmers' Market,Maria Hernandez Park Knickerbocker Ave. at Starr St.,Knickerbocker Ave and Starr St,Brooklyn,NY,11237,Sean-Michael Fleming,6463939305,http://www.bushwickfarmersmarket.org,Saturday  9am-3pm,June 25-November 19,Y,M,40.70281,-73.92539,N,Y,Y,"(40.70281, -73.92539)"
Kings,Carroll Gardens Greenmarket,Carroll St. btwn Smith & Court Sts.,Carroll St and Court St,Brooklyn,NY,11231,Chelsea Whittaker,2127887476,http://www.grownyc.org/greenmarket,Sunday  8am-3pm,Year-round,Y,YR,40.68106,-73.99653,N,Y,Y,"(40.68106, -73.99653)"
Kings,Coney Island Farm Stand,Surf Ave. & W. 16th St.,Surf Ave and West 16th Street,Brooklyn,NY,11224,Rocco Brescia,9178739261,http://www.astelladevelopment.org,Sunday  9am-3pm,July 12-November 22,Y,M,40.57542,-73.98337,N,Y,Y,"(40.57542, -73.98337)"
Kings,Cortelyou Greenmarket,Cortelyou Rd. btwn Argyle & Rugby Rds.,1399 Cortelyou Rd,Brooklyn,NY,11226,Chelsea Whittaker,2127887476,http://www.grownyc.org/greenmarket,Sunday  8am-3pm,Year-round,Y,YR,40.64044,-73.96617,N,Y,Y,"(40.64044, -73.96617)"
Kings,Cypress Hills Youthmarket,Fulton St. btwn Richmond & Logan Sts.,Fulton St. and Logan St.,Brooklyn,NY,11208,Kori Petrovic,2127887476,http://www.grownyc.org/youthmarket,Friday  11am-6pm,July 8-November 18,Y,M,40.68206,-73.87788,N,Y,Y,"(40.68206, -73.87788)"
Kings,East New York Farmers' Market I,"United Comm. Centers, Schenck Ave, btwn New Lots & Livonia",613 New Lots Ave,Brooklyn,NY,11207,Ana Aguirre,7186497979,http://www.eastnewyorkfarms.org,Saturday  9am-3pm,June 25-November 26,Y,M,40.6647,-73.88659,N,Y,Y,"(40.6647, -73.88659)"
Kings,East New York Farmers' Market II,New Lots & Georgia Aves.,New Lots Ave and Georgia Ave,Brooklyn,NY,11207,Ana Aguirre,7186497979,http://www.eastnewyorkfarms.org,Wed  3:30pm- 6:30pm,July 6-October 26,Y,M,40.66075,-73.8955,N,Y,Y,"(40.66075, -73.8955)"
Kings,Flatbush Junction Youthmarket,Flatbush & Nostrand Aves.,Flatbush Ave and Nostrand Ave,Brooklyn,NY,11210,Kori Petrovic,2127887476,http://www.grownyc.org/greenmarket,Saturday  8:30am-3pm,July 9-November 19,Y,M,40.63286,-73.9477,N,Y,Y,"(40.63286, -73.9477)"
Kings,Fort Greene Park Greenmarket,Washington Park btwn Dekalb Ave. & Willoughby St.,Washington Park and DeKalb Ave,Brooklyn,NY,11205,Chelsea Whittaker,2127887476,http://www.grownyc.org/greenmarket,Saturday  8am-4pm,Year-round,Y,YR,40.68962,-73.97313,N,Y,Y,"(40.68962, -73.97313)"
Kings,Graham Avenue Farmers' Market,Cook St. & Graham Ave.,Graham Ave and Cook St,Brooklyn,NY,11206,Betty Cooney,7183876643,http://www.grahamavenuebid.net,Saturday  8am-4:30pm,July 2-October 29,Y,M,40.70235,-73.94238,N,Y,Y,"(40.70235, -73.94238)"
Kings,Grand Army Plaza Greenmarket,Flatbush Ave. & Prospect Park West,Flatbush Ave and Grand Army Plaza,Brooklyn,NY,11238,Chelsea Whittaker,2127887476,http://www.grownyc.org/greenmarket,Saturday  8am-4pm,Year-round,Y,YR,40.67412,-73.9695,N,Y,Y,"(40.67412, -73.9695)"
Kings,H.S. for Public Service Youth Farm Farmers' Market,600 Kingston Ave.,600 Kingston Ave,Brooklyn,NY,11203,Steve Frillman,2125942155,http://www.theyouthfarm.org,Wed  2:30pm-6:30pm,June 22-October 26,Y,M,40.65866,-73.94384,N,Y,Y,"(40.65866, -73.94384)"
Kings,Harvest Home Clinton Hills Farmers' Market,"Lafayette St., Btwn Washington & Waverly Aves.",267 Lafayette St,Brooklyn,NY,11238,Maritza Owens,2128283361,http://www.harvesthomefm.org,Tuesday  8am-4pm,July 5-November 22,Y,M,40.6882,-73.96615,N,Y,Y,"(40.6882, -73.96615)"
Kings,Harvest Home Coney Island Farmers' Market,Ocean Parkway btwn Ave. Z & Shore Rd.,Ocean Pkwy and Avenue Z,Brooklyn,NY,11235,Maritza Owens,2128283361,http://www.harvesthomefm.org,Wed/Fri  8am-4pm,June 15-November 23,Y,M,40.58669,-73.96578,N,Y,Y,"(40.58669, -73.96578)"
Kings,Harvest Home Kings Co. Hospital Farmers' Market,Clarkson Ave btwn E 37th & E 38th Sts.,511 Clarkson Ave,Brooklyn,NY,11203,Maritza Owens,2128283361,http://www.harvesthomefm.org,Wednesday  8am-4pm,June 8-November 23,Y,M,40.65588,-73.94245,N,Y,Y,"(40.65588, -73.94245)"
Kings,Harvest Home Marcy Park Farmers' Market,Myrtle & Marcy Aves.,Myrtle Ave and Marcy Ave,Brooklyn,NY,11206,Maritza Owens,2128283361,http://www.harvesthomefm.org,Thursday  8am-4pm,July 9-November 19,Y,M,40.69537,-73.94922,N,Y,Y,"(40.69537, -73.94922)"
Kings,Hattie Carthan After Church Farmers' Market,49 Van Buren St. Hattie Carthan Herban Farm,49 Van Buren St,Brooklyn,NY,11221,Yonnette Fleming,7186383566,http://www.hattiecarthancommunitymarket.com,Sunday  1pm-6pm,August 2-November 22,Y,M,40.69024,-73.94359,N,Y,Y,"(40.69024, -73.94359)"
Kings,Hattie Carthan Community Farmers' Market,363-365 Clifton Pl. Nostrand & Marcy Aves.,365 Clifton Pl,Brooklyn,NY,11216,Yonnette Fleming,7186383566,http://www.hattiecarthancommunitymarket.com,Saturday  9am-3pm,July 11-November 21,Y,M,40.68965,-73.94879,N,Y,Y,"(40.68965, -73.94879)"
Kings,Isabahlia Farmers' Market,Powell Street Garden 410 Livonia Ave.,410 Livonia Ave,Brooklyn,NY,11212,Brenda Thompson-Duchene,7184983174,http://www.isabahlialoefinc.org,Saturday  8am-4pm,June 25-October 29,Y,M,40.66353,-73.90226,N,Y,Y,"(40.66353, -73.90226)"
Kings,Isabahlia WINTER Farmers' Market,93 New Lots Ave.,93 New Lots Ave,Brooklyn,NY,11212,Brenda Thompson-Duchene,7184983174,,Saturday  8am-1pm,November 5-December 16,N,M/X,40.65817,-73.90181,N,Y,Y,"(40.65817, -73.90181)"
Kings,Kensington Youthmarket,Ft. Hamilton Pkwy btwn E. 4th & E. 5th Sts.,Fort Hamilton Pkwy and East 5th St,Brooklyn,NY,11218,Kori Petrovic,2127887476,http://www.grownyc.org/youthmarket,Saturday  8am-4pm,June 4-November 19,Y,M,40.64917,-73.97659,N,Y,Y,"(40.64917, -73.97659)"
Kings,Live Market Farmers' Market,Farragut Rd. btwn Albany Ave and E 40th St.,Farragut Rd. and East 40th Street,Brooklyn,NY,11203,Shahkeem Williams,3476093731,,Sunday  8am-3pm,July 10-November 27,Y,M,40.63685,-73.93849,N,N,Y,"(40.63685, -73.93849)"
Kings,Malcolm X Blvd. Community Farmers' Market,Jackie Robinson Park btwn Chauncy & Marion Sts.,Malcolm X Blvd and Marion St,Brooklyn,NY,11233,Rev. Robert Jackson,9173016747,http://www.brooklynrescuemission.org,Saturday  8am-3pm,July 16-November 12,Y,M,40.67975,-73.92865,N,Y,Y,"(40.67975, -73.92865)"
Kings,Marcy Plaza Community Farmers' Market,Marcy Plaza & Fulton St.,1368 Fulton Street,Brooklyn,NY,11216,Rev. Robert Jackson,9173016747,http://www.brooklynrescuemission.org,Wednesday  11am-6pm,July 6-November 16,Y,M,40.68007,-73.94565,N,Y,Y,"(40.68007, -73.94565)"
Kings,McCarren Park Greenmarket,Union Ave btwn Driggs Ave & N 12th St,N 12th Street and Driggs Ave,Brooklyn,NY,11222,Chelsea Whittaker,2127887476,http://www.grownyc.org/greenmarket,Saturday  8am-3pm,Year-round,Y,YR,40.72046,-73.95269,N,Y,Y,"(40.72046, -73.95269)"
Kings,McGolrick Park Farmers' Market,Inside McGolrick Park near Pavilion,103 Russel Street,Brooklyn,NY,11222,Frankie Rowland,9149234837,http://www.downtoearthmarkets.com,Sunday  10am-4pm,April 24-November 20,Y,P/M,40.72405,-73.94428,N,Y,Y,"(40.72405, -73.94428)"
Kings,McGolrick Park WINTER Farmers' Market,"Park Church Co-op , 129 Russell St.",129 Russell St.,Brooklyn,NY,11222,Frankie Rowland,9149234837,http://www.downtoearthmarkets.com,"Sunday  11am-4pm, Monthly  Jan-Mar",January 8-May 28,N,M/X/W/P,40.72481,-73.94467,N,Y,Y,"(40.72481, -73.94467)"
Kings,Park Slope Sunday Farmers' Market,Fourth Street off Fifth Ave.  near PS 51,Fourth Street and Fifth Avenue,Brooklyn,NY,11215,Emily Grayson,9149234837,http://www.downtoearthmarkets.com,Sunday  10am-5pm,Year-round,Y,YR,40.6722,-73.98379,N,Y,Y,"(40.6722, -73.98379)"
Kings,Park Slope Wednesday Farmers' Market,4th St. at 5th Ave. in front of Washington Park,4th Street at 5th Avenue,Brooklyn,NY,11215,Emily Grayson,9149234837,http://www.downtoearthmarkets.com,Wednesday  3pm-7pm,May 11-November 16,Y,P/M,40.6722,-73.98379,N,Y,Y,"(40.6722, -73.98379)"
Kings,Parkside Greenmarket,Parkside & Ocean Ave.  Brooklyn,Parkside Ave. & Ocean Ave.,Brooklyn,NY,11226,Chelsea Whittaker,2127887476,http://www.grownyc.org/greenmarket,Sunday  8am-4pm,June 12-November 20,Y,M,40.655116,-73.961895,N,Y,Y,"(40.655116, -73.961895)"
Kings,Pitkin-Verde Farmers' Market,2094 Pitkin Ave. Brooklyn,2094 Pitkin Ave,Brooklyn,NY,11207,Aida Castillo,9178938801,http://www.cypresshills.org,Tuesday  9am-5pm,June 21-November 22,Y,M,40.67175,-73.89525,N,Y,Y,"(40.67175, -73.89525)"
Kings,Project EATS Brooklyn Museum Farm Stand,200 Eastern Parkway,200 Eastern Parkway,Brooklyn,NY,11238,Matt Linder,2126121528,http://www.projectEATS.org,Thursday  2pm-7pm,May 19-November 23,Y,P/M,40.67115,-73.96348,N,Y,Y,"(40.67115, -73.96348)"
Kings,Project EATS Marcus Garvey Village Farm Stand,300 Chester St. (at Dumont Ave),300 Chester Street,Brooklyn,NY,11212,Matt Linder,2126121528,http://www.projectEATS.org,Tues  2pm-6pm,May 31-November 29,Y,P/M,40.66432,-73.91036,N,Y,Y,"(40.66432, -73.91036)"
Kings,Red Hook Farm Stand,580 Columbia St. across from IKEA,580 Columbia St,Brooklyn,NY,11231,Corey Blant,7185015394,http://www.added-value.org/farmers-market,Saturday  8am-3pm,June 18-November 19,Y,M,40.67198,-74.00901,N,Y,Y,"(40.67198, -74.00901)"
Kings,Saratoga Farm Stand,Saratoga Ave. & Fulton Street,2048 Saratoga Ave,Brooklyn,NY,11233,Jenny Marks,9143305191,http://bedstuyagainsthunger.org,Saturday  10am-2pm,July 18-November 19,Y,M,40.678507,-73.915944,N,N,Y,"(40.678507, -73.915944)"
Kings,Sunset Park Greenmarket,4th Ave. btwn 59th & 60th Sts.,4th Ave and 60th St,Brooklyn,NY,11220,Chelsea Whittaker,2127887476,http://www.grownyc.org/greenmarket,Saturday  8am-3pm,July 9-November 19,Y,M,40.64081,-74.01836,N,Y,Y,"(40.64081, -74.01836)"
Kings,Urban Oasis Farm Stand,"Kingsboro Psychiatric Center,, 681 Clarkson Ave. btwn Troy Ave & 43rd St.",681 Clarkson Ave,Brooklyn,NY,11203,Michelle Almonte,7182217907,,Wednesday  2pm-5:30pm,June 29-November 9,Y,M,40.65621,-73.93741,N,Y,Y,"(40.65621, -73.93741)"
Kings,Williamsburg Greenmarket,Taylor St btwn Bedford & Lee Aves.,199 Taylor St,Brooklyn,NY,11211,Chelsea Whittaker,2127887476,http://www.grownyc.org/greenmarket,Thursday  8am-4pm,July 7-November 17,Y,M,40.70643,-73.96211,N,Y,Y,"(40.70643, -73.96211)"
Lewis,Colwell's Farm Stand and Garden Center,"6007 State Route 12 , Glenfield",6007 State Route 12,Glenfield,NY,13343,Michael & Violet Colwell,3153767402,http://www.colwellsfarmmarket.com,"Mon-Sat  8am-7pm, Sunday  9am-6pm",April 1-December 25,Y,P/M/X,43.71844,-75.41148,N,Y,Y,"(43.71844, -75.41148)"
Lewis,Lewis Co. General Hospital Farmers' Market,"7785 N. State St.  Lowville, near Children's Clinic back parking lot",7785 North State St,Lowville,NY,13367,Tina Schell,3153765087,http://www.lcgh.net,Thursday  11am-3pm,June 23-September 29,Y,M,43.79521,-75.49955,N,Y,Y,"(43.79521, -75.49955)"
Lewis,Lowville Farmers' Market,Lewis County Fairgrounds 5473 Bostwick St.,5473 Bostwick Street,Lowville,NY,13367,Chris Bush,3157838642,,Saturday  8am-2pm,May-October,Y,P/M,43.79319,-75.4909,Y,Y,Y,"(43.79319, -75.4909)"
Lewis,Lyons Falls Farmers' Market,Riverside Park 6904 Laura St.,6904 Laura St,Lyons Falls,NY,13368,Liz Clair,3153486135,http://www.lyonsfallsalive.org,Tuesday  12pm-5pm,June 21-October 11,Y,M,43.61458,-75.3562,N,N,Y,"(43.61458, -75.3562)"
Livingston,Curbside Market-Rotating,rotating locations for WIC clinics and Congregate Meal Sites,2 Murray Hill Drive,Mt. Morris,NY,14510,Mitch Gruber,5853283380,http://www.foodlinkny.org,Contact market for times and locations,July-September,Y,M,42.732804,-77.884454,N,Y,Y,"(42.732804, -77.884454)"
Livingston,Curbside Market-Tri County Family Med,60 Red Jacket St. Dansville,60 Red Jacket Street,Dansville,NY,14437,Mitch Gruber,5853283380,http://www.foodlinkny.org,Thursday  10am-10:45am,July-November,Y,M,42.55055,-77.69462,N,Y,Y,"(42.55055, -77.69462)"
Livingston,Dansville Farmers' Market,100 Maple Ave.,100 Maple St,Dansville,NY,14437,Gary Roth,5853352963,http://ragingwindsfarmmarket.com/?page_id=9,Friday  11am-4pm,May 20-October 7,Y,P/M,42.56598,-77.70782,N,Y,Y,"(42.56598, -77.70782)"
Livingston,Geneseo Farmers' Market,Center St. & Main St.,Main St and Center St,Geneseo,NY,14454,Cate Concannon,5858804456,http://www.geneseofarmersmarket.org,Thursday  3pm-6:30pm,June 23-October 20,Y,M,42.79624,-77.81679,Y,Y,Y,"(42.79624, -77.81679)"
Livingston,Lima Presbyterian Church Farmers' Market,"7295 W. Main St., Corner of  Route 15A & Routes 20 & 5",7295 W. Main St.,Lima,NY,14485,Suzanne Muehleisen,5857529238,http://www.limapreschurch.org,Tuesday  3pm-6pm,June 14-October 25,Y,M,42.90496,-77.61175,N,N,Y,"(42.90496, -77.61175)"
Livingston,Mount Morris Village Farmers' Market,103 Main St.,36 North Main St,Mount Morris,NY,14510,Lisa Torcello,5856584160,,Tuesday  1pm-6pm,May 24-October 11,Y,P/M,42.73078,-77.87658,N,Y,Y,"(42.73078, -77.87658)"
Madison,Cazenovia Farmers' Market,Memorial Park Albany St./US 20,48 Albany St. Memorial Park,Cazenovia,NY,13035,Aileen Randolph,3154154426,http://www.cazenoviachamber.com,Saturday  9am-2pm,May 7-October 29,Y,P/M,42.92975,-75.85456,N,N,Y,"(42.92975, -75.85456)"
Madison,Cazenovia WINTER Farmers' Market,"American Legion Hall, 26 Chenango St",26 Chenango Street,Cazenovia,NY,13035,Aileen Randolph,3154154426,http://www.cazenoviachamber.com,3rd Saturday  10am-1pm,November-April,Y,X/W/P,42.92467,-75.85168,N,N,Y,"(42.92467, -75.85168)"
Madison,Cottage Lawn Farmers' Market,"435 Main St., Madison Co. Historical Society Oneida",435 Main St.,Oneida,NY,13421,Marlene Parlow,3153634136,http://www.mchs1900.org,Tuesday  3pm-7pm,May 17-Sept 13,N,P/M,43.087786,-75.646416,N,N,Y,"(43.087786, -75.646416)"
Madison,Hamilton Parry's Hardware WINTER Farmers' Market,100 Utica Street Hamilton,100 Utica Street,Hamilton,NY,13346,Gwenn Werner,3158240002,http://www.parryshamilton.com,2nd Saturday  10am-1pm,November-April,N,M/X/W/P,42.832844,-75.548027,N,N,Y,"(42.832844, -75.548027)"
Madison,Oneida City Farmers' Market,"Oneida & Main Sts. Across from City Hall, downtown Oneida",Oneida and Main Sts.,Oneida,NY,13421,Marty Winchell,3153634308,http://www.oneidafarmersmarket.com/,Thursday  11am-7pm,June 2-October 27,N,M,43.0962,-75.65257,N,Y,Y,"(43.0962, -75.65257)"
Madison,Oneida Towers Farmers' Market,226 Farrier Ave. Oneida,226 Farrier Ave.,Oneida,NY,13421,Kevin Salm,3158294668,,Thursday  3pm-4pm,July 7-October 13,Y,M,43.09384,-75.65524,N,N,Y,"(43.09384, -75.65524)"
Madison,Town of Lenox/Canastota Farmers' Market,3392 Seneca Turnpike Canastota (new location),South Main St and West Hickory St,Canastota,NY,13032,Lois Brown,3156979291,,"Saturday  10am-5pm, weather permitting",July 9-October 15,Y,M,43.07476,-75.75539,N,N,Y,"(43.07476, -75.75539)"
Madison,Village of Hamilton Farmers' Market,Village Green 3 Broad St.,Broad St and Payne St,Hamilton,NY,13346,Kim Taranto,3158241111,http://www.hamilton-ny.gov,Saturday  8am-1pm,May 7-October 29,Y,P/M,42.82684,-75.54436,N,N,Y,"(42.82684, -75.54436)"
Monroe,441 Ministries Farm Stand,441 Parsells Ave.  Rochester,441 Paresells Ave,Rochester,NY,14609,Mitch Gruber,5853283380,http://www.foodlinkny.org,Tuesday  3pm-7pm,July-September,Y,M,43.1658,-77.56665,N,N,Y,"(43.1658, -77.56665)"
Monroe,Aenon Baptist Farm Stand,175 Genesee St.  Rochester,175 Genesee St,Rochester,NY,14611,Mitch Gruber,5853283380,http://www.foodlinkny.org,Wednesday  11am-2pm,July-September,Y,M,43.1466,-77.63608,N,Y,Y,"(43.1466, -77.63608)"
Monroe,Bridges to Wellness Farm Stand,Gantt Community Center  700 North St. Rochester,700 North Street,Rochester,NY,14605,Mitch Gruber,5853283380,http://www.foodlinkny.org,Tuesday  4pm-6pm,July-September,Y,M,43.17027,-77.59682,N,Y,Y,"(43.17027, -77.59682)"
Monroe,Brightly's Farm Market,525 Drake Rd.  Hamlin,525 Drake Rd.,Hamlin,NY,14464,Betsy Brightly,5859679499,http://www.brightlyfarms.com,"Daily  9am-5pm, closed Sat/Sun after Dec 25",Year-round,Y,YR,43.29471,-77.94344,N,Y,Y,"(43.29471, -77.94344)"
Monroe,Brighton Farmers' Market,Brighton High School lot  1150 Winton Rd. South,1150 Winton Rd South,Rochester,NY,14618,Sue Gardner-Smith,5852698918,http://www.brightonfarmersmarket.org,Sunday  9am-1pm,May 22-October 30,Y,P/M,43.12204,-77.56808,Y,Y,Y,"(43.12204, -77.56808)"
Monroe,Brighton WINTER Farmers' Market,Brookside Center  220 Idlewood Rd. Rochester,220 Idlewood Road,Rochester,NY,14618,Sue Gardner-Smith,5852698918,http://www.brightonfarmersmarket.org,Sunday  1pm-4pm,November 1-May 15,Y,M/X/W/P,43.11275,-77.56809,Y,Y,Y,"(43.11275, -77.56809)"
Monroe,Brockport Farmers' Market,Market St. off Main St.,Main St and Market St,Brockport,NY,14420,Charlene Veltz,5856373602,https://www.facebook.com/The-Brockport-Farmers-Market-119617824757169/,Sunday  8am-1pm,June 19-October 30,Y,M,43.21556,-77.9385,N,N,Y,"(43.21556, -77.9385)"
Monroe,Cathedral Community Farm Stand,296 Flower City Park Rochester,296 Flower City Park,Rochester,NY,14615,Mitch Gruber,5853283380,http://www.foodlinkny.org,Weds 2:30pm-5:30pm,July-September,Y,M,43.19312,-77.63275,N,Y,Y,"(43.19312, -77.63275)"
Monroe,Curbside Market-Affinity Apts.,1 Affinity Ln Rochester,1 Affinity Lane,Rochester,NY,14616,Mitch Gruber,5853283380,http://www.foodlinkny.org,Alt Fri  3:45pm-4:15pm,July 10-March 31,N,M/X/W,43.24028,-77.67841,N,Y,Y,"(43.24028, -77.67841)"
Monroe,Curbside Market-AJHC Woodward,480 Genesee St. Rochester,480 Genesee Street,Rochester,NY,14611,Mitch Gruber,5853283380,http://www.foodlinkny.org,Monday  2:15pm-3:15pm,July-September,Y,M,43.14061,-77.63585,N,Y,Y,"(43.14061, -77.63585)"
Monroe,Curbside Market-Andrews Terrace,125 St. Paul St. Rochester,125 Saint Paul Street,Rochester,NY,14604,Mitch Gruber,5853283380,http://www.foodlinkny.org,Tue  1:15pm-2:15pm,July-March 31,Y,M/X/W,43.15872,-77.61047,N,Y,Y,"(43.15872, -77.61047)"
Monroe,Curbside Market-Blackwell Estates,5 Antoinette Drive,5 Antoinette Drive,Rochester,NY,14623,Mitch Gruber,5853283380,http://www.foodlinkny.org,Monday 3pm-3:45pm,July-September,Y,M,43.08254,-77.60786,N,Y,Y,"(43.08254, -77.60786)"
Monroe,Curbside Market-Buena Vista,229 Avenue A Rochester,229 Avenue A,Rochester,NY,14621,Mitch Gruber,5853283380,http://www.foodlinkny.org,Thu  11am-11:45am,July-March 31,Y,M/X/W,43.17777,-77.61842,N,Y,Y,"(43.17777, -77.61842)"
Monroe,Curbside Market-Carriage Factory Apts,33 Litchfield St. Rochester,33 Litchfield Street,Rochester,NY,14608,Mitch Gruber,5853283380,http://www.foodlinkny.org,Thu  2:30pm-3:15pm,July-March 31,Y,M/X/W,43.15396,-77.62575,N,Y,Y,"(43.15396, -77.62575)"
Monroe,Curbside Market-CDS1 Monarch,860 Hard Road,860 Hard Road,Rochester,NY,14580,Mitch Gruber,5853283380,http://www.foodlinkny.org,Alt Wed 4pm-4:45pm,July-September,Y,M,43.21682,-77.46121,N,Y,Y,"(43.21682, -77.46121)"
Monroe,Curbside Market-CDS Monarch,840 Holt Road,840 Holt Road,Rochester,NY,14580,Mitch Gruber,5853283380,http://www.foodlinkny.org,Alt Wed 4pm-4:45pm,July-September,Y,M,43.21874,-77.44659,N,Y,Y,"(43.21874, -77.44659)"
Monroe,Curbside Market-Centro De Oro,817 East Main St,817 East Main St,Rochester,NY,14605,Mitch Gruber,5853283380,http://www.foodlinkny.org,Wed 12pm-12:45pm,July-September,Y,M,43.16069,-77.59043,N,Y,Y,"(43.16069, -77.59043)"
Monroe,Curbside Market-Charles Settlement House,71 Parkway Rochester,Jones Ave and Durkin Aly,Rochester,NY,14608,Mitch Gruber,5853283380,http://www.foodlinkny.org,Friday  11am-11:45am,July-March 31,Y,M/X/W,43.16603,-77.63234,N,Y,Y,"(43.16603, -77.63234)"
Monroe,Curbside Market-Charlotte Harbortown I,4575 Lake Ave. Rochester,4575 Lake Avenue,Rochester,NY,14612,Mitch Gruber,5853283380,http://www.foodlinkny.org,Friday  1:15pm-2:15pm,July-March 31,Y,M/X/W,43.25492,-77.61411,N,Y,Y,"(43.25492, -77.61411)"
Monroe,Curbside Market-Charlotte Harbortown II,60 River St. Rochester,60 River Street,Rochester,NY,14612,Mitch Gruber,5853283380,http://www.foodlinkny.org,Friday  2:30pm-3:15pm,July-March 31,Y,M/X/W,43.2444,-77.61607,N,Y,Y,"(43.2444, -77.61607)"
Monroe,Curbside Market-Creek House Commons,1200 White Swan Dr. Rochester,1200 White Swan Dr,Rochester,NY,14626,Mitch Gruber,5853283380,http://www.foodlinkny.org,Friday  3pm-3:45pm,July-September,Y,M,43.21894,-77.73798,N,Y,Y,"(43.21894, -77.73798)"
Monroe,Curbside Market-Danforth Towers,140 West Ave Rochester,140 West Avenue,Rochester,NY,14611,Mitch Gruber,5853283380,http://www.foodlinkny.org,Tue  4:30pm-5:15pm,July-September,Y,M,43.15038,-77.64166,N,Y,Y,"(43.15038, -77.64166)"
Monroe,Curbside Market-DePaul Ridgeview,109 Marburger St. Rochester,109 Marburger Street,Rochester,NY,14621,Mitch Gruber,5853283380,http://www.foodlinkny.org,Thursday  3pm-3:45pm,July-September,Y,M,43.19459,-77.60782,N,Y,Y,"(43.19459, -77.60782)"
Monroe,Curbside Market-Dunn Towers,100 Dunn Tower Dr. Rochester,Dunn Tower Drive,Rochester,NY,14606,Mitch Gruber,5853283380,http://www.foodlinkny.org,Mon  1:15pm-2:15pm,July-March 31,Y,M/X/W,43.16924,-77.69727,N,Y,Y,"(43.16924, -77.69727)"
Monroe,Curbside Market-East Court Apt,410 Alexander St,410 Alexander St,Rochester,NY,14607,Mitch Gruber,5853283380,http://www.foodlinkny.org,Fri 12pm-12:45pm,July-September,Y,M,43.15929,-77.59219,N,Y,Y,"(43.15929, -77.59219)"
Monroe,Curbside Market-Glenwood Gardens,41 Kestrel St. Rochester,41 Kestrel St,Rochester,NY,14613,Mitch Gruber,5853283380,http://www.foodlinkny.org,Alt Mon  3:45pm-4:15pm,July-March 31,Y,M/X/W,43.175465,-77.644124,N,Y,Y,"(43.175465, -77.644124)"
Monroe,Curbside Market-Harris Park Apts,122 Harris Park  Rochester,122 Harris Park,Rochester,NY,14610,Mitch Gruber,5853283380,http://www.foodlinkny.org,Wed  1:15pm-2:15pm,January 9-March 31,N,W,43.15131,-77.55331,N,Y,Y,"(43.15131, -77.55331)"
Monroe,Curbside Market-Hudson Ridge Tower,401 Seneca Manor Rochester,401 Seneca Manor Drive,Rochester,NY,14621,Mitch Gruber,5853283380,http://www.foodlinkny.org,Wed  3:45pm-4:15pm,July-March 31,Y,M/X/W,43.19309,-77.60324,N,Y,Y,"(43.19309, -77.60324)"
Monroe,Curbside Market-Jack Kenny Apts,220 Garland Ave.  Rochester,220 Garland Ave.,Rochester,NY,14611,Mitch Gruber,5853283380,http://www.foodlinkny.org,Alt Mon  3:45pm-4:15pm,January 9-March 31,N,W,43.15879,-77.66278,N,Y,Y,"(43.15879, -77.66278)"
Monroe,Curbside Market-James A Dobson Apts,150 Van Auker St. Rochester,150 Van Auker Street,Rochester,NY,14608,Mitch Gruber,5853283380,http://www.foodlinkny.org,Tue  3:45pm-4:15pm,July-March 31,Y,M/X/W,43.14997,-77.62109,N,Y,Y,"(43.14997, -77.62109)"
Monroe,Curbside Market-Jordan Health Brown Square,322 Lake Ave.,322 Lake Ave,Rochester,NY,14608,Mitch Gruber,5853283380,http://www.foodlinkny.org,Thu  9:45am-10:30am,July-March 31,Y,M/X/W,43.17032,-77.62732,N,Y,Y,"(43.17032, -77.62732)"
Monroe,Curbside Market-Jordan Health Holland,80 Holland St. Rochester,82 Holland Street,Rochester,NY,14605,Mitch Gruber,5853283380,http://www.foodlinkny.org,Tue  9:45am-10:30am,July-March 31,Y,M/X/W,43.1693,-77.60223,N,Y,Y,"(43.1693, -77.60223)"
Monroe,Curbside Market-Jordan Health Woodward,480 Genesee St.  Rochester,480 Genesee St.,Rochester,NY,14611,Mitch Gruber,5853283380,http://www.foodlinkny.org,Mon  2:30pm-3:15pm,January 9-March 31,N,W,43.14068,-77.63599,N,Y,Y,"(43.14068, -77.63599)"
Monroe,Curbside Market-Kennedy Towers,666 S Plymouth Ave. Rochester,666 South Plymouth Ave,Rochester,NY,14608,Mitch Gruber,5853283380,http://www.foodlinkny.org,Thu  3:45pm-4:15pm,July-March 31,Y,M/X/W,43.14251,-77.61894,N,Y,Y,"(43.14251, -77.61894)"
Monroe,Curbside Market-Lena Gantt Estates,86 Vienna St. Rochester,86 Vienna Street,Rochester,NY,14605,Mitch Gruber,5853283380,http://www.foodlinkny.org,Wed  9:45am-10:30am,July-March 31,Y,M/X/W,43.17032,-77.60607,N,Y,Y,"(43.17032, -77.60607)"
Monroe,Curbside Market-LifeSpan,25 Franklin Street,25 Franklin Street,Rochester,NY,14604,Mitch Gruber,5853283380,http://www.foodlinkny.org,Monday  11am-11:45am,July-March 31,Y,M/X/W,43.15805,-77.60484,N,Y,Y,"(43.15805, -77.60484)"
Monroe,Curbside Market-Long Pond,1230 Long Pond Road,1230 Long Pond Road,Rochester,NY,14626,Mitch Gruber,5853283380,http://www.foodlinkny.org,Friday 4:30pm-5:15pm,July-September,Y,M,43.2122,-77.69579,N,Y,Y,"(43.2122, -77.69579)"
Monroe,Curbside Market-Maplewood YMCA,25 Driving Park Ave Rochester,25 Driving Park Ave,Rochester,NY,14613,Mitch Gruber,5853283380,http://www.foodlinkny.org,Friday  9:45am-10:30am,July-March 31,Y,M/X/W,43.18092,-77.63017,N,Y,Y,"(43.18092, -77.63017)"
Monroe,Curbside Market-Monroe Co. WIC,250 Waring Rd. Rochester,250 Waring Rd,Rochester,NY,14609,Mitch Gruber,5853283380,http://www.foodlinkny.org,Wed  3pm-3:45pm,July-September,Y,M,43.1836,-77.56554,N,Y,Y,"(43.1836, -77.56554)"
Monroe,Curbside Market-Montgomery Center,10 Cady St. Rochester,10 Cady Street,Rochester,NY,14608,Mitch Gruber,5853283380,http://www.foodlinkny.org,Thursday  12pm-12:45pm,July-September,Y,M,43.14584,-77.62107,N,Y,Y,"(43.14584, -77.62107)"
Monroe,Curbside Market-Newark Housing Authority,200 East Miller St. Newark,200 East Miller St.,Newark,NY,14513,Mitch Gruber,5853283380,,Tuesday 12:30pm-1pm,July-November,Y,M,43.04589,-77.09149,N,Y,Y,"(43.04589, -77.09149)"
Monroe,Curbside Market-Oak Orchard  Albion,301 West Ave. Albion,301 West Ave,Albion,NY,14411,Mitch Gruber,5853283380,http://www.foodlinkny.org,Wed  10:50am-11:20am,July-November,Y,M,43.24124,-78.20258,N,Y,Y,"(43.24124, -78.20258)"
Monroe,Curbside Market-Oak Orchard Brockport,300 West Ave. Brockport,300 West Avenue,Rochester,NY,14420,Mitch Gruber,5853283380,http://www.foodlinkny.org,Wed 12:30pm-1:15pm,July-November,Y,M,43.149964,-77.646425,N,Y,Y,"(43.149964, -77.646425)"
Monroe,Curbside Market-Ogden Senior Center,200 South Union St. Spencerport,200 South Union St.,Spencerport,NY,14559,Mitch Gruber,5853283380,,Monday 12:30pm-1:15pm,July-November,Y,M,43.19063,-77.80076,N,Y,Y,"(43.19063, -77.80076)"
Monroe,Curbside Market-Pieters Family Life Center,1025 Commons Way Rochester,1025 Commons Way,Rochester,NY,14623,Mitch Gruber,5853283380,http://www.foodlinkny.org,Monday 4pm-4:45pm,July-September,Y,M,43.08363,-77.60593,N,Y,Y,"(43.08363, -77.60593)"
Monroe,Curbside Market-Pinnacle Place,919 Clinton Ave. S. Rochester,919 Clinton Ave South,Rochester,NY,14620,Mitch Gruber,5853283380,http://www.foodlinkny.org,Tue  11am-11:45am,July-March 31,Y,M/X/W,43.14006,-77.59637,N,Y,Y,"(43.14006, -77.59637)"
Monroe,Curbside Market-Rotating,Contact Foodlink for more info,1999 Mount Read Boulevard,Rochester,NY,14615,Mitch Gruber,5853283380,http://www.foodlinkny.org,Mon-Fri 5pm-6:15pm,July-September,Y,M,43.192695,-77.659902,N,Y,Y,"(43.192695, -77.659902)"
Monroe,Curbside Market-Saint Ann's Comm,1500 Portland Ave. Rochester,1500 Portland Avenue,Rochester,NY,14621,Mitch Gruber,5853283380,http://www.foodlinkny.org,Wed  2:30pm-3:15pm,July-March 31,Y,M/X/W,43.19411,-77.5813,N,Y,Y,"(43.19411, -77.5813)"
Monroe,Curbside Market-Saint Bernards Park,2260 Lake Ave.  Rochester,2260 Lake Ave.,Rochester,NY,14612,Mitch Gruber,5853283380,http://www.foodlinkny.org,Alt Fri  3:45pm-4:15pm,January 9-March 31,N,W,43.20764,-77.62947,N,Y,Y,"(43.20764, -77.62947)"
Monroe,Curbside Market-Saint Jude Apartments,4075 Lyell Rd. Rochester,4075 Lyell Rd Rochester NY 14606,Rochester,NY,14606,Mitch Gruber,5853283380,http://www.foodlinkny.org,Friday  4pm-4:45pm,July-September,Y,M,43.163475,-77.736702,N,Y,Y,"(43.163475, -77.736702)"
Monroe,Curbside Market-Saint Michaels,108 Evergreen,108 Evergreen,Rochester,NY,14605,Mitch Gruber,5853283380,http://www.foodlinkny.org,Tuesday 12pm-12:45pm,July-September,Y,M,43.17396,-77.61546,N,Y,Y,"(43.17396, -77.61546)"
Monroe,Curbside Market-Saint Simons Terrace,260 St. Paul St. Rochester,260 Saint Paul Street,Rochester,NY,14605,Mitch Gruber,5853283380,http://www.foodlinkny.org,Tue  4pm-4:45pm,July-September,Y,M,43.16357,-77.61088,N,Y,Y,"(43.16357, -77.61088)"
Monroe,Curbside Market-Savannah Towers,15 Savannah St. Rochester,15 Savannah Street,Rochester,NY,14607,Mitch Gruber,5853283380,http://www.foodlinkny.org,Thu  1:15pm-2:15pm,July-March 31,Y,M/X/W,43.15467,-77.59855,N,Y,Y,"(43.15467, -77.59855)"
Monroe,Curbside Market-South View Towers,500 South Ave. Rochester,500 South Ave,Rochester,NY,14620,Mitch Gruber,5853283380,http://www.foodlinkny.org,Tuesday  2:30pm-3:15pm,July-March 31,Y,M/X/W,43.1465,-77.60524,N,Y,Y,"(43.1465, -77.60524)"
Monroe,Curbside Market-SW Family YMCA,597 Thurston Rd. Rochester,597 Thurston Rd,Rochester,NY,14619,Mitch Gruber,5853283380,http://www.foodlinkny.org,Monday  9:45am-10:30am,July-March 31,Y,M/X/W,43.132866,-77.651137,N,Y,Y,"(43.132866, -77.651137)"
Monroe,Curbside Market-The Hamilton,185 Mt. Hope Ave. Rochester,185 Mount Hope Avenue,Rochester,NY,14620,Mitch Gruber,5853283380,http://www.foodlinkny.org,Monday  12pm-12:45pm,July-September,Y,M,43.14573,-77.61013,N,Y,Y,"(43.14573, -77.61013)"
Monroe,Curbside Market-Trillium Health,259 Monroe Ave. #100,259 Monroe,Rochester,NY,14607,Mitch Gruber,5853283380,http://www.foodlinkny.org,Wed  11am-11:45am,July-March 31,Y,M/X/W,43.14959,-77.59906,N,Y,Y,"(43.14959, -77.59906)"
Monroe,Curbside Market-Unity St. Mary's,89 Genesee St. Rochester,89 Genesee Street,Rochester,NY,14611,Mitch Gruber,5853283380,http://www.foodlinkny.org,Thursday  3:30pm-4:15pm,July-September,Y,M,43.14844,-77.63718,N,Y,Y,"(43.14844, -77.63718)"
Monroe,Curbside Market-YWCA Apartments,175 N. Clinton Ave. Rochester,175 North Clinton Ave,Rochester,NY,14604,Mitch Gruber,5853283380,http://www.foodlinkny.org,Thu  4pm-4:45pm,July-September,Y,M,43.16073,-77.6082,N,Y,Y,"(43.16073, -77.6082)"
Monroe,Farm 2 Preschool Lake Ave Farmers' Market,214 Lake Ave Rochester,214 Lake Ave,Rochester,NY,14608,Darla Ferrante,5856544745,,Thurs  2:30pm-5:30pm,June 2-October 6,Y,M,43.16846,-77.6253,Y,Y,Y,"(43.16846, -77.6253)"
Monroe,Farm 2 Preschool Main St. Farmers' Market,444 E. Main St. Rochester,444 East Main Street,Rochester,NY,14604,Darla Ferrante,5856544745,,Wed  3:30pm-6pm,June 8-October 12,Y,M,43.1588,-77.60064,Y,Y,Y,"(43.1588, -77.60064)"
Monroe,Farm 2 Preschool South Ave Farmers' Market,941 South Ave Rochester,941 South Ave,Rochester,NY,14604,Darla Ferrante,5856544745,,Monday  2pm-4:30pm,June 6-October 3,Y,M,43.13663,-77.60895,Y,Y,Y,"(43.13663, -77.60895)"
Monroe,Genesee Valley RMA Farmers' Market,"Administration Bldg. (south parking lot), 900 Jefferson Rd. Henrietta",900 Jefferson Rd.,Henrietta,NY,14623,"William Mulligan, Jr.",5854244600,http://www.geneseevalleyregionalmarketauthority.com,Friday  11am-4pm,June 3-October 28,Y,M,43.08721,-77.61427,N,N,Y,"(43.08721, -77.61427)"
Monroe,Greece Ridge Mall Farmers' Market,271 Greece Ridge Center Drive  Rochester,217 Greece Ridge Center Dr,Greece,NY,14626,Melanie Fazio,5852251140,http://www.themallatgreeceridge.com,Thu/Sat  8am-3pm,June 4-October 28,Y,M,43.20503,-77.68772,N,N,Y,"(43.20503, -77.68772)"
Monroe,Humbolt R-Center Youth Farm Stand,1045 Altantic Ave Rochester,1090 Atlantic Ave,Rochester,NY,14610,Mitch Gruber,5853283380,http://www.foodlink.org,Thursday 2pm-6pm,July-September,Y,M,43.15675,-77.55488,N,Y,Y,"(43.15675, -77.55488)"
Monroe,Irondequoit Farmers' Market,Town Hall Lawn  1280 Titus Ave. Rochester,1280 Titus Ave,Rochester,NY,14617,Katrina Hall,5853367267,http://www.irondequoit.org,Thursday  4pm-8pm,May 26-October 20,Y,P/M,43.21118,-77.58154,Y,Y,Y,"(43.21118, -77.58154)"
Monroe,Kirby's Farm Market,"9739 Ridge Road West, Brockport",9739 Ridge Rd W,Brockport,NY,14420,Linda Kirby,5856372600,http://kirbysfm.com,Daily 10am-5pm,May-December,N,P/M/X,43.250069,-77.984642,N,N,Y,"(43.250069, -77.984642)"
Monroe,Lakeside Farmers' Market,4370 Lake Ave. Rochester,4370 Lake Ave.,Rochester,NY,14612,Robert Putney,5854782014,,Monday  4pm-7pm,May 16-October 17,Y,P/M,43.2505,-77.61413,N,N,Y,"(43.2505, -77.61413)"
Monroe,Long Season WINTER Farmers' Market,"Brookside Community Center, 220 Idlewood Road, Rochester",220 Idlewood Road,Rochester,NY,14618,Sue Gardner-Smith,5852698918,http://www.brightonfarmersmarket.org/this-week-at-long-season-winter-farmers-market-3/,Sunday  1pm-4pm,November 6-May 7,N,M/X/W/P,43.11292,-77.56801,N,N,Y,"(43.11292, -77.56801)"
Monroe,Mary's Place Farm Stand,613 Lexington Ave,613 Lexington Ave,Rochester,NY,14613,Mitch Gruber,5853283380,http://www.foodlinkny.org,Thursday 1pm-4pm,July-September,Y,M,43.17925,-77.64638,N,Y,Y,"(43.17925, -77.64638)"
Monroe,Mendon Farmers' Market,Mendon Station Park,101 Mendon lonia Road,Mendon,NY,14506,Michael Slusser,5852082933,http://www.mendonfarmersmkt.com,Tuesday  3pm-6pm,June 7-October 11,Y,M,42.99082,-77.50241,Y,Y,Y,"(42.99082, -77.50241)"
Monroe,Monroe Village Farmers' Market,"Blessed Sacrament Church lot, 730 Monroe Ave Rochester",730 Monroe Ave,Rochester,NY,14607,Allen Krisiloff,5854734470,http://www.monroevillagefarmersmarket.org,Wednesday  4pm-7pm,June 15-October 12,Y,M,43.14357,-77.58848,N,Y,Y,"(43.14357, -77.58848)"
Monroe,North Chili Farmers' Market,Methodist Church  2200 Westside Drive,2200 Westside Dr,North Chilli,NY,14514,Roger Dart,5855949222,http://www.umcofnorthchili.org,Saturday  8am-1pm,June 18-October 29,Y,M,43.12648,-77.78969,N,N,Y,"(43.12648, -77.78969)"
Monroe,Parma Baptist Comm Church Farm Stand,4997 W. Ridge Rd Spencerport,4997 W. Ridge Rd,Spencerport,NY,14559,Mitch Gruber,5853283380,http://www.foodlink.org,Saturday 2pm-5pm,July-September,Y,M,43.21828,-77.79032,N,Y,Y,"(43.21828, -77.79032)"
Monroe,Partners in Faith Farm Stand,350 Chili Ave. Rochester,350 Chili Avenue,Rochester,NY,14611,Mitch Gruber,5853283380,http://www.foodlinkny.org,Thursday  4pm-7pm,July-September,Y,M,43.1473,-77.64607,N,Y,Y,"(43.1473, -77.64607)"
Monroe,Pittsford Farmers' Market,"Pittsford Colony Plaza, 3400 Monroe Ave.",3400 Monroe Ave.,Rochester,NY,14618,Cindy Christ,5857338104,,Tue/Sat  9am-1pm,May 7-November 22,N,P/M,43.10282,-77.535917,N,N,Y,"(43.10282, -77.535917)"
Monroe,Project Hope Farm Stand,Conkey Corner Park  92 Conkey Ave. Rochester,Clifford Ave and Conkey Ave,Rochester,NY,14621,Mitch Gruber,5853283380,http://www.foodlinkny.org,Wed  4pm-7pm,July-September,Y,M,43.17472,-77.6196,N,Y,Y,"(43.17472, -77.6196)"
Monroe,Rochester Public Market,280 N. Union St. off East Main St.,280 North Union St.,Rochester,NY,14609,Cindy De Coste,5854286907,http://www.cityofrochester.gov/publicmarket,"Saturday  5am-3pm, Tue/Thu  6am-1pm",Year-round,Y,YR,43.1657,-77.59016,Y,Y,Y,"(43.1657, -77.59016)"
Monroe,Saint Mark's & Saint John's Farm Stand,1245 Culver Road Rochester,1245 Culver Rd,Rochester,NY,14609,Mitch Gruber,5853283380,http://www.foodlinkny.org,Sat  9:30am-12:30pm,July-September,Y,M,43.16807,-77.56219,N,Y,Y,"(43.16807, -77.56219)"
Monroe,Scottsville Midweek Farmers' Market,American Legion Pkg Lot  61 Main Street,61 Main St,Scottsville,NY,14546,Marcy McCall,5858893981,https://www.facebook.com/Scottsville-Midweek-Farmers-Market-125248400836985/,Wednesday  4pm-7pm,June 1-September 28,Y,M,43.0193,-77.75548,N,N,Y,"(43.0193, -77.75548)"
Monroe,South Wedge Farmers' Market,"Genesee Gateway City Park, 151 Mt. Hope Ave. Rochester",151 Mt. Hope Ave,Rochester,NY,14620,Jesse Knoth,5852561740,http://www.swfm.org,Thursday  4pm-7pm,June 9-October 13,Y,M,43.14684,-77.60934,Y,Y,Y,"(43.14684, -77.60934)"
Monroe,Town of Rush Farmers' Market,1900 Rush Scottsville Rd.,1900 Rush Scottsville Rd.,Rush,NY,14543,Patricia Stephens,5855332340,http://www.townofrush.com,Wednesday  3pm-6:30pm,July 6-November 9,Y,M,42.99712,-77.6483,N,N,Y,"(42.99712, -77.6483)"
Monroe,Village of Fairport,"58 S. Main St. parking lot, behind Bank of America",58 South Main St,Fairport,NY,14450,Fritz May,5854213209,http://www.fairportny.com,Saturday  7am-12pm,May 7-November 19,Y,P/M,43.09992,-77.44214,N,N,Y,"(43.09992, -77.44214)"
Monroe,Webster's Joe Obbie Farmers' Market,Webster Town Center  1028 Ridge Rd.,1028 Ridge Rd.,Webster,NY,14580,Jason Bliek,5852611533,http://www.webstersjoeobbiefarmersmarketinc.org,Saturday  8:30am-1pm,June 11-October 29,Y,M,43.20964,-77.45416,N,N,Y,"(43.20964, -77.45416)"
Monroe,Westside Farmers' Market,"St. Monica's Church parking lot, 831 Genesee St. Rochester",831 Genesee St,Rochester,NY,14611,Jackie Farrell,5854368999,http://www.westsidemarketrochester.com,Tuesday  4pm-7:30pm,June 7-October 11,Y,M,43.134058,-77.636523,Y,Y,Y,"(43.134058, -77.636523)"
Montgomery,Amsterdam Saturday Farmers' Market,Walter Elwood Museum 100 Church St.,100 Church St.,Amsterdam,NY,12010,Ben Wallach,5182217828,https://www.facebook.com/AmsterdamSaturdayFarmersMarket/timeline?ref=page_internal,Saturday  10am-2pm,May 21-October 8,Y,P/M,42.93962,-74.18643,N,N,Y,"(42.93962, -74.18643)"
Montgomery,Amsterdam Uptown Farmers' Market,4988 State Highway 30,4988 Route 30,Amsterdam,NY,12010,Michael Tillson,5188829306,http://www.fmfma.org,Wednesday  2pm-5pm,June 16-October 19,Y,M,42.95893,-74.18742,N,Y,Y,"(42.95893, -74.18742)"
Montgomery,Canajoharie Farmers' Market,"Arkell Museum lot, 2 Erie Blvd.",2 Erie Blvd.,Canajoharie,NY,13317,Phyllis Lapi,5186734434,http://www.canajohariefarmersmarket.com,Sunday  11am-2pm,June 5-October 30,Y,M,42.90704,-74.5721,N,N,Y,"(42.90704, -74.5721)"
Montgomery,Damin Farm Farm Stand,"8083 State Highway 5, St. Johnsville",8083 State Highway 5,St. Johnsville,NY,13452,Barb Damin,5185682643,,Saturday  9am-1pm,Year-round,Y,YR,43.00508,-74.72428,N,N,Y,"(43.00508, -74.72428)"
Montgomery,Fort Plain Farmers' Market,Parking lot on 12 Willet St. Ft. Plain,12 Willet Street,Fort Plain,NY,13339,Annette Rorick,5189934271,,Thursday  10am-4pm,May 26-November 17,Y,P/M,42.93177,-74.62118,N,N,Y,"(42.93177, -74.62118)"
Montgomery,Haven of Hope Farm Stand,"19 Cemetery St. , Fonda",19 Cemetary Street,Fonda,NY,12068,Pat Brooking,5187701390,http://www.havenofhopefarm.org,for timings contact Pat Brooking 518-770-1390,March 18-December 23,Y,P/M/X,42.95692,-74.37054,N,N,Y,"(42.95692, -74.37054)"
Montgomery,Karen's Produce Inc.,2311 State Hwy 5S,2311 State Hwy 5S,Amsterdam,NY,12010,Deanna Nelson,5188297397,,"Mon-Thu  10am-9pm, Fri-Sun  9am-9pm",June 15-October 25,Y,M,42.93155,-74.28781,N,N,Y,"(42.93155, -74.28781)"
Nassau,Anna House Farm Stand,2150 Hempstead Turnpike Elmont,2150 Hempstead Turnpike,Elmont,NY,11003,Dana Youkilis,5163589250,http://www.childcarenassau.org,Tuesday  10am-1pm,June 28-September 27,Y,M,40.70919,-73.7216,Y,Y,Y,"(40.70919, -73.7216)"
